城市,景点名称,景点类型,最佳季节,评分,门票价格,推荐游玩时长,简介,经度,纬度
沈阳市,莫子山公园,风景名胜,全年,4.7,免费,2-3小时,环山路,123.484796,41.670704
沈阳市,中央公园音乐喷泉,风景名胜,全年,4.7,免费,2-3小时,智慧二街浑南新城中央公园(南侧),123.455937,41.668943
沈阳市,白塔公园,风景名胜,全年,4.5,免费,2-3小时,浑南新区白塔堡,123.425321,41.693927
沈阳市,沈阳故宫博物院,风景名胜,全年,4.9,免费,2-3小时,沈阳路171号,123.455677,41.798387
沈阳市,弥陀寺,风景名胜,全年,4.3,免费,2-3小时,浑南新区白塔堡白塔公园内(南侧),123.425560,41.691514
沈阳市,张学良旧居陈列馆,风景名胜,全年,4.9,免费,2-3小时,朝阳街少帅府巷46号,123.457791,41.794058
沈阳市,浑南市民公园,风景名胜,全年,4.4,免费,2-3小时,南堤西路2号,123.439289,41.742602
沈阳市,沈阳科学宫,风景名胜,全年,4.7,免费,2-3小时,青年大街201号,123.436297,41.761323
沈阳市,铁西广场,风景名胜,全年,4.7,免费,2-3小时,兴华南街与建设东路交汇处,123.371026,41.793315
沈阳市,南湖公园,风景名胜,全年,4.7,免费,2-3小时,文化路1号,123.412767,41.771134
沈阳市,沈水湾公园,风景名胜,全年,4.6,免费,2-3小时,沈水路589号,123.419541,41.751388
沈阳市,老北市,风景名胜,全年,4.7,免费,2-3小时,皇寺路99号,123.425650,41.806730
沈阳市,五里河公园,风景名胜,全年,4.7,免费,2-3小时,沈水路(近富民街),123.468110,41.758702
沈阳市,北陵公园,风景名胜,全年,4.8,免费,2-3小时,泰山路12号,123.428469,41.851637
沈阳市,太清宫,风景名胜,全年,4.7,免费,2-3小时,西顺城街16号,123.447802,41.804425
沈阳市,铁西1905文化创意园,风景名胜,全年,4.7,免费,2-3小时,兴华北街8号(重型文化广场南侧),123.382444,41.812451
沈阳市,慈恩寺,风景名胜,全年,4.6,免费,2-3小时,大南街慈恩寺巷12号,123.460535,41.783483
沈阳市,氏族聚落,风景名胜,全年,3.3,免费,2-3小时,智慧三街157号,123.460772,41.678039
沈阳市,青年公园,风景名胜,全年,4.7,免费,2-3小时,风雨坛街道青年大街111号(近文艺路),123.438050,41.780985
沈阳市,桃仙网红墙,风景名胜,全年,4.3,免费,2-3小时,辽宁百汇租车(沈阳机场店)东侧100米,123.511821,41.654297
沈阳市,怀远门,风景名胜,全年,4.6,免费,2-3小时,沈阳路2号(怀远门地铁站B口步行100米),123.448799,41.797754
沈阳市,中山公园(和平南大街),风景名胜,全年,4.7,免费,2-3小时,南京南街7号(太原街地铁站C口步行260米),123.406180,41.785505
沈阳市,老北市室内民国老街,风景名胜,全年,4.2,免费,2-3小时,北市场街道皇寺路99-1号,123.425653,41.806546
沈阳市,中山广场,风景名胜,全年,4.6,免费,2-3小时,中山广场与北四马路交叉口西50米,123.410563,41.796968
沈阳市,万泉公园,风景名胜,全年,4.7,免费,2-3小时,万泉街1号,123.474879,41.789984
沈阳市,劳动公园,风景名胜,全年,4.3,免费,2-3小时,雪柳街与青松路交叉口东北,123.348361,41.669937
沈阳市,皇姑北塔公园,风景名胜,全年,4.7,免费,2-3小时,崇山东路21-20,123.451047,41.828352
沈阳市,沈阳市人民广场,风景名胜,全年,4.5,免费,2-3小时,青年大街1号(人民广场地铁站D口步行80米),123.434043,41.804654
沈阳市,八一公园,风景名胜,全年,4.5,免费,2-3小时,三纬路18号,123.424566,41.802352
沈阳市,清昭陵,风景名胜,全年,4.4,免费,2-3小时,北塔街道泰山路12号北陵公园内,123.427580,41.851292
沈阳市,方型广场,风景名胜,全年,4.3,免费,2-3小时,南五马路,123.416212,41.774811
沈阳市,沈阳市东陵公园,风景名胜,全年,4.7,免费,2-3小时,古井路与G1501沈阳绕城高速交叉口东陵路210号(东陵路),123.592798,41.839119
沈阳市,万柳塘公园,风景名胜,全年,4.5,免费,2-3小时,先农坛路17巷,123.465053,41.780738
沈阳市,百鸟公园,风景名胜,全年,4.5,免费,2-3小时,崇山中路66号辽宁大学对面(近宁山路)百鸟园附近,123.402344,41.829651
沈阳市,沈阳鸟岛,风景名胜,全年,4.7,免费,2-3小时,东陵路195号(近东陵公园),123.606705,41.826236
沈阳市,碧霞宫,风景名胜,全年,4.2,免费,2-3小时,白塔街道沈营大街799号,123.421425,41.665139
沈阳市,护国法轮寺,风景名胜,全年,4.6,免费,2-3小时,北塔街27号,123.451361,41.830270
沈阳市,浑河西峡谷生态公园,风景名胜,全年,4.7,免费,2-3小时,[],123.231329,41.688390
沈阳市,北塔,风景名胜,全年,4.5,免费,2-3小时,北塔街27号,123.451862,41.830529
沈阳市,荷花池,风景名胜,全年,4.3,免费,2-3小时,智慧二街276号附近,123.457087,41.660091
沈阳市,和平广场,风景名胜,全年,4.4,免费,2-3小时,新兴街11号,123.404306,41.778447
沈阳市,新华广场,风景名胜,全年,4.3,免费,2-3小时,南京南街150号,123.394242,41.776405
沈阳市,瀋阳蓬瀛宫道院,风景名胜,全年,4.3,免费,2-3小时,南塔街97号蓬瀛宫,123.451908,41.765773
沈阳市,兴华公园,风景名胜,全年,4.3,免费,2-3小时,兴华南街(兴华公园地铁站D1口步行330米),123.364044,41.787896
沈阳市,黎明广场,风景名胜,全年,4.3,免费,2-3小时,和睦路53-1号(黎明广场地铁站B口旁),123.503485,41.808387
沈阳市,科普公园,风景名胜,全年,4.4,免费,2-3小时,五里河街道五爱街52号(近文体东路),123.439919,41.761821
沈阳市,南塔公园,风景名胜,全年,4.4,免费,2-3小时,文萃路(近文萃苑),123.453310,41.765830
沈阳市,沈阳植物园(沈阳世博园),风景名胜,全年,4.7,免费,2-3小时,双园路301号,123.649192,41.862330
沈阳市,马耳山风景区,风景名胜,全年,4.5,免费,2-3小时,姚千街道马耳山生态旅游区,123.583142,41.511459
沈阳市,浑南新城中央公园-水秀湖广场,风景名胜,全年,3.9,免费,2-3小时,白塔河二路,123.456169,41.695921
沈阳市,皇寺,风景名胜,全年,4.4,免费,2-3小时,皇寺路206号,123.427846,41.807182
沈阳市,塔北城市公园,风景名胜,全年,4.1,免费,2-3小时,沈营大街71-1号,123.428269,41.703597
沈阳市,浑河堡教堂,风景名胜,全年,4.3,免费,2-3小时,金帆西路8号,123.441204,41.722231
沈阳市,仙女湖公园,风景名胜,全年,4.4,免费,2-3小时,沈辽西路17号,123.336740,41.777497
沈阳市,英国汇丰银行奉天支行旧址,风景名胜,全年,4.3,免费,2-3小时,十一纬路102号(南市场地铁站B口步行250米),123.423199,41.790428
沈阳市,周恩来同志少年读书旧址,风景名胜,全年,3.7,免费,2-3小时,大东路育才巷10号,123.466047,41.794961
沈阳市,浑河晚渡公园,风景名胜,全年,4.4,免费,2-3小时,城东湖街道阳光路20号,123.355262,41.746867
沈阳市,水生岛,风景名胜,全年,4.1,免费,2-3小时,智慧二街与创新路交叉口东北240米,123.455847,41.658609
沈阳市,鲁迅公园,风景名胜,全年,4.3,免费,2-3小时,西滨河路6号,123.421485,41.779172
沈阳市,罗士圈生态公园,风景名胜,全年,4.3,免费,2-3小时,浑河湾街道沈水湾街道玉屏二路钓鱼台七号南门对面,123.387567,41.757471
沈阳市,喜园婚礼文化主题公园,风景名胜,全年,4.4,免费,2-3小时,观泉路112-1w号,123.494003,41.848798
沈阳市,白清寨滑雪场,体育休闲服务,全年,4.3,免费,2-3小时,白清寨广福路69-1号,123.720571,41.575620
沈阳市,克俭公园,风景名胜,全年,4.3,免费,2-3小时,阿里山路8号,123.404955,41.809798
沈阳市,富民园,风景名胜,全年,3.9,免费,2-3小时,富民街15号,123.469080,41.772139
沈阳市,奥林匹克生态公园,风景名胜,全年,4.4,免费,2-3小时,五三街道南堤中路与天赐街交叉口,123.483792,41.751333
沈阳市,时代公园,风景名胜,全年,4.3,免费,2-3小时,东贸路20号,123.504354,41.818644
沈阳市,张学良旧居陈列馆-张学良将军,风景名胜,全年,4.4,免费,2-3小时,朝阳街少帅府东巷与朝阳街少帅府巷交叉口西80米,123.457994,41.793498
沈阳市,大法寺,风景名胜,全年,4.3,免费,2-3小时,八王寺街120号(近沈阳大学南门),123.461677,41.817681
沈阳市,北大营营房旧址,科教文化服务,全年,4.5,免费,2-3小时,柳林街2号,123.488878,41.843108
沈阳市,泉园广场,风景名胜,全年,4.2,免费,2-3小时,富民街15号富民园内(西侧),123.468783,41.772020
沈阳市,铁西森林公园,风景名胜,全年,4.5,免费,2-3小时,建设西路附近,123.321174,41.807708
沈阳市,沈阳南塔,风景名胜,全年,4.2,免费,2-3小时,南塔街71号,123.451769,41.766427
沈阳市,清真南寺,风景名胜,全年,4.4,免费,2-3小时,南清真路23号,123.439382,41.802508
沈阳市,护国延寿寺,风景名胜,全年,4.3,免费,2-3小时,北市场街道敦化一路55-2号西南80米,123.408653,41.805104
沈阳市,海蓝星梦幻城,风景名胜,全年,4.7,免费,2-3小时,七星大街96号,123.427404,41.910691
沈阳市,中共满洲省委旧址纪念馆,风景名胜,全年,0.0,免费,2-3小时,北市场街道皇寺路福安巷3号,123.424536,41.807734
沈阳市,沈阳郎朗钢琴广场,风景名胜,全年,4.2,免费,2-3小时,南堤西路,123.421824,41.742123
沈阳市,马耳山,风景名胜,全年,4.2,免费,2-3小时,马耳山风景区(东北角),123.589866,41.524192
沈阳市,重型文化广场,风景名胜,全年,4.2,免费,2-3小时,兴华北街8号(重型文化广场地铁站B口步行180米),123.383135,41.812914
沈阳市,华润置地创新公园,风景名胜,全年,4.1,免费,2-3小时,创新路与沈本二街交叉口东南80米,123.506903,41.676419
沈阳市,沈阳方城文化旅游区,风景名胜,全年,4.5,免费,2-3小时,皇城街道中街路钟楼南巷与钟楼南巷交叉口西南220米,123.456448,41.799017
沈阳市,圣火广场,风景名胜,全年,4.2,免费,2-3小时,五三街道五三街道朗云街,123.473579,41.740239
沈阳市,浑南新城中央公园,风景名胜,全年,4.6,免费,2-3小时,全运四路附近,123.455984,41.677606
沈阳市,西塔,风景名胜,全年,4.8,免费,2-3小时,北市场街道市府大路25号,123.408655,41.805107
沈阳市,小南教堂广场(暂停开放),风景名胜,全年,4.8,免费,2-3小时,小南街59号,123.452652,41.789837
沈阳市,长白岛森林公园,风景名胜,全年,4.7,免费,2-3小时,南堤西路附近,123.387594,41.751536
沈阳市,沈阳市铁西区劳动公园,风景名胜,全年,4.7,免费,2-3小时,肇工街南12号,123.338026,41.786106
沈阳市,天主教辽宁总教区沈阳南关主教座堂天主堂(暂停开放),风景名胜,全年,4.6,免费,2-3小时,小南街南乐郊路40号,123.452889,41.790631
沈阳市,东塔园-护国永光寺,风景名胜,全年,4.7,免费,2-3小时,东塔街2号,123.507014,41.796630
沈阳市,丁香湖公园,风景名胜,全年,4.7,免费,2-3小时,造化街道白山路,123.330932,41.848672
沈阳市,惠工广场,风景名胜,全年,4.4,免费,2-3小时,惠工街167号甲4(金融中心地铁站B口步行110米),123.440064,41.813644
沈阳市,东三省总督府(暂停开放),风景名胜,全年,4.6,免费,2-3小时,皇城街道皇城街道盛京路28号,123.457622,41.796813
沈阳市,碧塘公园,风景名胜,全年,4.5,免费,2-3小时,长江街15号,123.415552,41.820416
沈阳市,长安寺,风景名胜,全年,4.4,免费,2-3小时,皇城街道中街路268号益田假日世界,123.461637,41.803264
沈阳市,舍利塔滩地公园,风景名胜,全年,4.3,免费,2-3小时,塔湾街,123.380011,41.834023
沈阳市,龙潭荷花湖度假公园-天柱排青公园,风景名胜,全年,4.4,免费,2-3小时,东陵路天柱排青公园(东陵公园对面),123.593193,41.826794
沈阳市,沈阳市园林植物标本公园,风景名胜,全年,4.3,免费,2-3小时,南塔街道南塔西街与科普路交叉口西北150米,123.443865,41.759861
沈阳市,天后宫,风景名胜,全年,4.2,免费,2-3小时,取意街4号,123.456255,41.811310
沈阳市,和平体育公园,风景名胜,全年,4.2,免费,2-3小时,南堤西路501号,123.405240,41.757159
沈阳市,朝阳山生态文化景区,风景名胜,全年,3.9,免费,2-3小时,沙河子村,123.668287,41.725134
沈阳市,抚近门,风景名胜,全年,4.2,免费,2-3小时,东顺城街82号,123.463726,41.797381
沈阳市,盛京堂子巷,风景名胜,全年,4.2,免费,2-3小时,堂子街堂子庙巷14-3号,123.474293,41.796798
沈阳市,万科·浑南新都心公园,风景名胜,全年,4.2,免费,2-3小时,桑林街与明德路交叉口西160米,123.502974,41.702435
沈阳市,辽宁省博物馆旧址,风景名胜,全年,4.2,免费,2-3小时,十纬路与北五经街交叉口东北100米,123.421643,41.791790
沈阳市,老龙口旅游景区,风景名胜,全年,4.1,免费,2-3小时,珠林路,123.480274,41.806462
沈阳市,中国沈阳审判日本战犯法庭旧址陈列馆,风景名胜,全年,4.8,免费,2-3小时,黑龙江街77号原北陵电影院,123.435817,41.829262
沈阳市,丁香东湖公园,风景名胜,全年,4.3,免费,2-3小时,造化街道白山路丁香湖公园,123.355812,41.844585
沈阳市,沈阳体育公园,风景名胜,全年,4.2,免费,2-3小时,南三马路61号(南五马路地铁站D1口步行300米),123.402765,41.783360
沈阳市,沈阳抗美援朝烈士陵园烈士纪念馆,风景名胜,全年,0.0,免费,2-3小时,金山路50号抗美援朝烈士陵园内,123.449618,41.855312
沈阳市,沈阳龙之梦动物科普乐园,风景名胜,全年,4.3,免费,2-3小时,京东Mall北门7层,123.484038,41.805355
沈阳市,东塔园,风景名胜,全年,4.2,免费,2-3小时,东塔街道东塔街2号,123.507310,41.797019
沈阳市,望鸢台,风景名胜,全年,4.1,免费,2-3小时,苏赵线南侧,123.506550,41.653771
沈阳市,浑河滨水慢道,风景名胜,全年,4.2,免费,2-3小时,五里河街道五爱立交与九龙街交叉口东80米,123.444210,41.752133
沈阳市,建设公园,风景名胜,全年,4.2,免费,2-3小时,建设西路,123.337569,41.806181
沈阳市,长白岛森林公园-长白岛动物园,风景名胜,全年,4.3,免费,2-3小时,南堤西路,123.387414,41.751400
沈阳市,砂山基督教,风景名胜,全年,4.2,免费,2-3小时,砂山街69号,123.381807,41.763093
沈阳市,中心庙,风景名胜,全年,4.3,免费,2-3小时,中街地铁站B2口步行460米,123.456456,41.799537
沈阳市,沈阳棋盘山国际风景旅游开发区,风景名胜,全年,4.7,免费,2-3小时,满堂街道,123.663085,41.933826
沈阳市,地藏寺,风景名胜,全年,4.3,免费,2-3小时,大沟乡(三块石),123.453366,41.480357
沈阳市,花间道运动公园,风景名胜,全年,4.3,免费,2-3小时,东陵路,123.620093,41.833816
沈阳市,沈河体育公园,风景名胜,全年,4.2,免费,2-3小时,沈水东路99号,123.510621,41.767202
沈阳市,九岛湖,风景名胜,全年,4.0,免费,2-3小时,创新路与智慧二街交叉口东北160米,123.455597,41.657890
沈阳市,长青公园,风景名胜,全年,4.2,免费,2-3小时,泉园二路85号,123.479084,41.772306
沈阳市,回龙寺,风景名胜,全年,4.3,免费,2-3小时,舍利塔滩地公园内(西北角),123.379443,41.834845
沈阳市,万泉公园-赵尔巽公馆旧址,风景名胜,全年,4.3,免费,2-3小时,万莲街道万泉街1号万泉公园内(西侧),123.470258,41.790043
沈阳市,莫子山公园游乐场,风景名胜,全年,4.0,免费,2-3小时,全运五路91号莫子山公园西门云中食街1号,123.483316,41.672694
沈阳市,细河U谷,风景名胜,全年,4.4,免费,2-3小时,细河悠谷与四环路辅路交叉口东140米,123.219995,41.699713
沈阳市,和谐广场,风景名胜,全年,4.2,免费,2-3小时,黄海路60号,123.291138,41.792854
沈阳市,山门寺,风景名胜,全年,4.2,免费,2-3小时,和平南大街130号(沈水湾公园内),123.400710,41.762314
沈阳市,汗王宫遗址,风景名胜,全年,4.2,免费,2-3小时,北中街路116号中街·盛京龙城西区,123.455589,41.804200
沈阳市,沈阳天主教堂爱国会,风景名胜,全年,4.2,免费,2-3小时,小南街南乐郊路40号,123.452889,41.790631
沈阳市,王滨红枫林,风景名胜,全年,4.3,免费,2-3小时,红枫里西侧110米,123.750813,41.706342
沈阳市,基督教堂,风景名胜,全年,4.2,免费,2-3小时,学城路11号,123.512297,41.749239
沈阳市,清福陵,风景名胜,全年,4.2,免费,2-3小时,东陵路210号沈阳东陵公园,123.589376,41.834510
沈阳市,报恩寺,风景名胜,全年,4.2,免费,2-3小时,古井路与G1501沈阳绕城高速交叉口东陵路210号沈阳市东陵公园,123.594330,41.836462
沈阳市,于济川公馆,风景名胜,全年,4.2,免费,2-3小时,中山路(欧风街店),123.429000,41.800645
沈阳市,沈阳国际泵道公园,风景名胜,全年,4.3,免费,2-3小时,中德(沈阳)高端装备制造产业园细河悠谷公园内,123.219736,41.696570
沈阳市,虎石台公园,风景名胜,全年,4.4,免费,2-3小时,建设路与兴明街交叉口西南240米,123.515028,41.942174
沈阳市,大佛寺,风景名胜,全年,4.2,免费,2-3小时,大南街三段慈恩寺巷14号,123.459713,41.784544
沈阳市,陨石山森林公园,风景名胜,全年,4.1,免费,2-3小时,李相街道滑石台村,123.664844,41.611380
沈阳市,水秀湖广场,风景名胜,全年,3.9,免费,2-3小时,智慧二街莫子山路中央公园,123.455777,41.669321
沈阳市,鲁迅儿童公园,风景名胜,全年,4.2,免费,2-3小时,文艺路2号方形广场(近东北设计院),123.423449,41.776498
沈阳市,大东广场,风景名胜,全年,4.2,免费,2-3小时,大北关街36-1号,123.463848,41.818709
沈阳市,辽宁总站(不对外开放),风景名胜,全年,4.3,免费,2-3小时,总站路100号,123.426776,41.810899
沈阳市,大羊安基督教堂,风景名胜,全年,3.9,免费,2-3小时,白塔镇大羊安村,123.398029,41.650062
沈阳市,辽宁雪豹军事主题乐园(暂停开放),风景名胜,全年,4.2,免费,2-3小时,鲍佟线,123.505144,41.603933
沈阳市,皇姑屯事件发生地,风景名胜,全年,4.2,免费,2-3小时,东西快速干道辅路,123.409556,41.811749
沈阳市,沈阳森林动物园,风景名胜,全年,4.7,免费,2-3小时,棋盘山国际风景旅游区内,123.684080,41.928501
沈阳市,东陵-郊野公园,风景名胜,全年,4.2,免费,2-3小时,东陵路沈阳东陵公园(东陵公园地铁站A口步行220米),123.593075,41.829957
沈阳市,沈阳故宫广场,风景名胜,全年,4.2,免费,2-3小时,沈阳路171号,123.456834,41.796939
沈阳市,中山广场-毛泽东雕像,风景名胜,全年,4.2,免费,2-3小时,太原街街道太原街街道开封街3号巷中山广场,123.410682,41.796952
沈阳市,领事馆绿地,风景名胜,全年,4.2,免费,2-3小时,十三纬路与荣生街交叉口东南80米,123.425481,41.784860
沈阳市,沈阳劳动模范纪念馆,风景名胜,全年,0.0,免费,2-3小时,市府大路沈阳职工之家大楼内,123.442184,41.804877
沈阳市,砂山公园,风景名胜,全年,4.1,免费,2-3小时,南京南街182号(隆轩御宫),123.389266,41.770501
沈阳市,海洋之约,风景名胜,全年,4.2,免费,2-3小时,长青街77号,123.501283,41.754027
沈阳市,于洪怒江公园,风景名胜,全年,4.2,免费,2-3小时,陵西街近河巷9-1号(怒江公园地铁站D口步行220米),123.392064,41.840406
沈阳市,沈阳故宫-武功坊,风景名胜,全年,4.2,免费,2-3小时,皇城街道沈阳路171号沈阳故宫内(西南角),123.455186,41.797641
沈阳市,怡静园,风景名胜,全年,4.0,免费,2-3小时,文艺路97号,123.460390,41.774671
沈阳市,沈阳故宫观景台(暂停开放),风景名胜,全年,4.2,免费,2-3小时,盛京大家庭4层,123.454900,41.799836
沈阳市,护国广慈寺,风景名胜,全年,4.2,免费,2-3小时,南塔街71号,123.451627,41.766462
沈阳市,大东公园,风景名胜,全年,4.1,免费,2-3小时,长安路85号,123.496295,41.795624
沈阳市,五里河公园-秦开广场,风景名胜,全年,4.2,免费,2-3小时,沈水路,123.455343,41.758362
沈阳市,胡古泉,风景名胜,全年,4.0,免费,2-3小时,绿柏街,123.452315,41.529612
沈阳市,中兴文化广场,风景名胜,全年,4.2,免费,2-3小时,蕙兰五街,123.376759,41.682482
沈阳市,东塔文化广场,风景名胜,全年,4.1,免费,2-3小时,东陵街道凌云街41号,123.518417,41.803311
沈阳市,水秀湖广场-中央公园,风景名胜,全年,4.0,免费,2-3小时,水秀湖广场内(北侧),123.455984,41.670492
沈阳市,碧岚公园,风景名胜,全年,4.1,免费,2-3小时,高官台路与高官台街辅路交叉口北300米,123.530030,41.830295
沈阳市,红枫岛,风景名胜,全年,3.9,免费,2-3小时,智慧三街与创新路交叉口北380米,123.457866,41.660340
沈阳市,黄海公园,风景名胜,全年,4.1,免费,2-3小时,"洪湖南街(渤海路与洪湖南街交汇处,世代龙泽湾附近)",123.312187,41.788022
沈阳市,金山公园,风景名胜,全年,4.1,免费,2-3小时,桂花街29-57号,123.333775,41.676941
沈阳市,莫子山碉堡,风景名胜,全年,3.9,免费,2-3小时,桃仙镇创新路莫子山公园(东侧),123.486711,41.671357
沈阳市,国家地理亲子主题乐园,风景名胜,全年,4.1,免费,2-3小时,博览路2甲1号沈阳K11Selec购物艺术中心L2层,123.437225,41.749446
沈阳市,蒲河生态文化走廊(沈北新区),风景名胜,全年,4.5,免费,2-3小时,蒲河景观路,123.372701,41.925867
沈阳市,长白岛森林公园-小动物园,风景名胜,全年,4.2,免费,2-3小时,滨堤路附近长白岛森林公园(西南角),123.384763,41.749733
沈阳市,沈水幸福公园,风景名胜,全年,4.1,免费,2-3小时,沈水街道香堇街与香梨路交叉路口往南约150米,123.307480,41.684765
沈阳市,沈阳市红船主题公园,风景名胜,全年,4.2,免费,2-3小时,仙岛北路与和安街交叉口东500米,123.420462,41.735398
沈阳市,向阳古刹,风景名胜,全年,4.6,免费,2-3小时,沈阳棋盘山国际风景旅游开发区向阳寺路,123.650612,41.933095
沈阳市,永安桥,风景名胜,全年,4.2,免费,2-3小时,马三家子乡永安村,123.301629,41.866887
沈阳市,沈阳市铁西区劳动公园-南园,风景名胜,全年,4.0,免费,2-3小时,肇工街南12号沈阳市铁西区劳动公园内(南侧),123.337822,41.782642
沈阳市,民主广场,风景名胜,全年,4.1,免费,2-3小时,南二马路与兰州南街交叉口东南100米,123.398220,41.788602
沈阳市,赵一荻故居,风景名胜,全年,4.2,免费,2-3小时,皇城街道朝阳街少帅府北巷内,123.458828,41.794361
沈阳市,中德公园,风景名胜,全年,4.2,免费,2-3小时,[],123.174496,41.691983
沈阳市,麦芽岛喝酒公园,风景名胜,全年,4.3,免费,2-3小时,智慧四街龙湖云里C1栋C112,123.463959,41.690736
沈阳市,上园,风景名胜,全年,3.9,免费,2-3小时,合作街91-1号,123.479842,41.832485
沈阳市,森林湖,风景名胜,全年,3.9,免费,2-3小时,驼峰街,123.373092,41.698030
沈阳市,浑河沙滩,风景名胜,全年,4.2,免费,2-3小时,沈水路(近富民街)五里河公园(东南角),123.470389,41.755252
沈阳市,浑河观光游船,风景名胜,全年,4.2,免费,2-3小时,浑河北岸富民桥码头,123.471782,41.755198
沈阳市,沈阳基督教东关教堂,风景名胜,全年,4.0,免费,2-3小时,小东街道东顺城街三自巷8号,123.465626,41.798250
沈阳市,皇姑英雄公园,风景名胜,全年,4.1,免费,2-3小时,金山路,123.454662,41.853185
沈阳市,中山公园游乐场(动物园),风景名胜,全年,4.2,免费,2-3小时,南京南街7号中山公园内(太原街地铁站G口步行410米),123.408054,41.786110
沈阳市,沈阳水洞(暂停开放),风景名胜,全年,4.1,免费,2-3小时,白清寨乡,123.726998,41.599678
沈阳市,杨宇霆公馆旧址,风景名胜,全年,4.0,免费,2-3小时,魁星楼路6-1w号附近,123.465972,41.792711
沈阳市,日俄会战碑日本碑,风景名胜,全年,4.1,免费,2-3小时,沙河街道,123.452216,41.602625
沈阳市,东陵荷花湖冰雪大世界,风景名胜,全年,3.9,免费,2-3小时,满堂街道双园路东陵公园荷花湖,123.591547,41.826981
沈阳市,龙王庙公园,风景名胜,全年,4.1,免费,2-3小时,文体西路107号,123.404352,41.763708
沈阳市,南运河带状公园,风景名胜,全年,3.9,免费,2-3小时,风雨坛街道西滨河路28号,123.432140,41.782749
沈阳市,沈阳基督教西塔教堂,政府机构及社会团体,全年,4.1,免费,2-3小时,市府大路37号(市府大路地铁站B口步行330米),123.412867,41.804187
沈阳市,台地广场,风景名胜,全年,3.9,免费,2-3小时,龙潭荷花湖度假公园-天柱排青公园内(东侧),123.600004,41.829343
沈阳市,法雨寺,风景名胜,全年,4.2,免费,2-3小时,胡扬线附近,123.211683,41.629901
沈阳市,苏家屯区人民广场,风景名胜,全年,4.0,免费,2-3小时,翠柏路14号,123.344276,41.663810
沈阳市,莫子山公园-南山,风景名胜,全年,3.8,免费,2-3小时,莫子山公园(西南角),123.482550,41.668068
沈阳市,恩霖堂,风景名胜,全年,4.0,免费,2-3小时,沈营路31号,123.435982,41.714429
沈阳市,首创滨河公园,风景名胜,全年,3.9,免费,2-3小时,沈中大街首创光和城,123.466364,41.699177
沈阳市,周恩来少年读书旧址-纪念馆,风景名胜,全年,4.2,免费,2-3小时,大东路育才巷10号周恩来同志少年读书旧址内(南侧),123.466130,41.794571
沈阳市,浑河西峡谷生态公园-橡胶坝广场,风景名胜,全年,4.3,免费,2-3小时,西苏堡浑河特大桥浑河西峡谷生态公园(西南角),123.221332,41.682228
沈阳市,常荫槐公馆旧址,风景名胜,全年,4.2,免费,2-3小时,天后宫路万寿巷5号,123.458652,41.809601
沈阳市,后榆基督教堂,风景名胜,全年,3.7,免费,2-3小时,金帆西路50号,123.428968,41.719529
沈阳市,长青湾公园,风景名胜,全年,4.1,免费,2-3小时,金地棕榈岛西北,123.515717,41.757795
沈阳市,皇姑天主堂,风景名胜,全年,3.9,免费,2-3小时,天山路50号9门,123.392241,41.816237
沈阳市,营盘地遗址,风景名胜,全年,4.1,免费,2-3小时,营盘地遗址(沈本产业大道南),123.630479,41.532867
沈阳市,天主教辽宁(沈阳)总教区主教府公署(暂停开放),风景名胜,全年,4.3,免费,2-3小时,乐郊路19号-2甲沈阳小南主教座堂院内,123.452164,41.790980
沈阳市,三洞桥,风景名胜,全年,4.1,免费,2-3小时,胜利北街与沈大线交叉口东北20米,123.411324,41.811028
沈阳市,青铜文化园,风景名胜,全年,3.9,免费,2-3小时,仙女河北路与大通湖街交叉口北100米,123.326801,41.767000
沈阳市,扎基拉姆护法殿,风景名胜,全年,4.1,免费,2-3小时,北塔街27号护国法轮寺内(南侧),123.451219,41.829831
沈阳市,白卿宫,风景名胜,全年,4.1,免费,2-3小时,梧桐大街沈阳城市学院,123.537568,41.628210
沈阳市,皇寺广场演艺区,风景名胜,全年,4.2,免费,2-3小时,营口东路与皇寺路交叉口西100米,123.426410,41.806315
沈阳市,金地艺境河派公园,风景名胜,全年,4.2,免费,2-3小时,南堤东路金地艺境,123.563877,41.794238
沈阳市,铁西清真寺,风景名胜,全年,4.1,免费,2-3小时,重工北街63号,123.329377,41.811191
沈阳市,觉光寺,风景名胜,全年,3.9,免费,2-3小时,[],123.549937,41.678996
大连市,劳动公园,风景名胜,全年,4.7,免费,2-3小时,昆明街道解放路58号,121.634778,38.911792
大连市,中山广场,风景名胜,全年,4.8,免费,2-3小时,中山路552号(中山广场地铁站D口步行60米),121.643827,38.921549
大连市,人民广场,风景名胜,全年,4.7,免费,2-3小时,人民广场街道中山路(人民广场地铁站B口步行370米),121.615559,38.911626
大连市,五一广场,风景名胜,全年,4.4,免费,2-3小时,泰山街6号4一4,121.603655,38.917765
大连市,大连森林动物园,风景名胜,全年,4.8,免费,2-3小时,南石道街迎春路60号,121.613226,38.882789
大连市,中山公园,风景名胜,全年,4.6,免费,2-3小时,联合路62号(近广电中心),121.600783,38.912891
大连市,友好广场,风景名胜,全年,4.5,免费,2-3小时,友好路158号(近一德街)(友好广场地铁站C1口旁),121.639586,38.920234
大连市,民主广场,风景名胜,全年,4.5,免费,2-3小时,文林街15-1号,121.647971,38.926391
大连市,白云山山体公园,风景名胜,全年,4.6,免费,2-3小时,白云街道长白街7-2号附近,121.617841,38.897143
大连市,五四广场,风景名胜,全年,4.4,免费,2-3小时,西安路(兴工街地铁站A口步行290米),121.589650,38.913633
大连市,银沙滩公园,风景名胜,全年,4.8,免费,2-3小时,滨海西路76号,121.612770,38.869242
大连市,东港音乐喷泉广场,风景名胜,全年,4.8,免费,2-3小时,五五路9号(近大连国际会议中心),121.675287,38.930747
大连市,儿童公园,风景名胜,全年,4.7,免费,2-3小时,哈尔滨街1-88号(南山路129-225号),121.653328,38.915627
大连市,白云雁水健身公园,风景名胜,全年,4.6,免费,2-3小时,白云街道迎春路60号,121.619654,38.888043
大连市,星海公园,风景名胜,全年,4.8,免费,2-3小时,中山路634号,121.568075,38.877811
大连市,松山寺,风景名胜,全年,4.3,免费,2-3小时,唐山街,121.627706,38.910968
大连市,双拥文化广场,风景名胜,全年,4.1,免费,2-3小时,黄河街与九三街路口处,121.614706,38.915059
大连市,大连老虎滩海洋公园,风景名胜,全年,4.7,免费,2-3小时,滨海中路9号,121.674648,38.878386
大连市,大连植物园,风景名胜,全年,4.7,免费,2-3小时,望海街39号,121.659338,38.909400
大连市,大连圣亚海洋世界,风景名胜,全年,4.7,免费,2-3小时,中山路608-6-8号,121.570641,38.878110
大连市,基督教北京街教堂,风景名胜,全年,4.3,免费,2-3小时,北京街道长江路665号,121.612225,38.919350
大连市,大连老虎滩海洋公园极地馆,风景名胜,全年,4.5,免费,2-3小时,虎滩街3号,121.677169,38.878242
大连市,海昌·东方水城,风景名胜,全年,4.8,免费,2-3小时,港浦路56-1号,121.693004,38.924020
大连市,富国公园,风景名胜,全年,4.6,免费,2-3小时,星海湾街道星海街173号,121.574791,38.891398
大连市,渔人码头,商务住宅,全年,4.8,免费,2-3小时,滨海东路80-2号,121.685769,38.874450
大连市,黑石礁公园,风景名胜,全年,4.8,免费,2-3小时,黑石礁街52号大连海洋大学附近,121.558934,38.869587
大连市,金沙滩,风景名胜,全年,4.6,免费,2-3小时,八一路街道滨海路53号,121.604623,38.874910
大连市,港东五街打卡点,风景名胜,全年,4.7,免费,2-3小时,华乐街与长江东路交叉口西南180米,121.688833,38.914848
大连市,思想公园,风景名胜,全年,4.2,免费,2-3小时,中山路427-a-2(富国街地铁站D口步行120米),121.585524,38.897331
大连市,北海公园,风景名胜,全年,4.2,免费,2-3小时,先进街34号,121.635296,38.929753
大连市,滨海路西段木栈道,风景名胜,全年,4.6,免费,2-3小时,白山路街道城堡麓园南侧200米,121.596943,38.875925
大连市,棒棰岛风景区,风景名胜,全年,4.7,免费,2-3小时,迎宾路1号(棒棰岛国宾馆景区),121.709418,38.882274
大连市,海军广场,风景名胜,全年,4.4,免费,2-3小时,春德街,121.663507,38.915208
大连市,天主教堂,风景名胜,全年,4.2,免费,2-3小时,西安街31号,121.624215,38.915426
大连市,亲海栈道,风景名胜,全年,4.8,免费,2-3小时,深蓝大连潜水游泳俱乐部东侧220米,121.637160,38.863899
大连市,希望广场,风景名胜,全年,4.1,免费,2-3小时,中山路与高明街交汇处东100米,121.629845,38.913201
大连市,数码广场,风景名胜,全年,4.4,免费,2-3小时,[],121.545136,38.884091
大连市,中山公园-华宫,风景名胜,全年,4.2,免费,2-3小时,联合路62号中山公园,121.601544,38.912661
大连市,小付家庄海滩,风景名胜,全年,4.6,免费,2-3小时,滨海中路傅家庄公园,121.628386,38.863488
大连市,富国公园-观景台,风景名胜,全年,4.3,免费,2-3小时,星辰街与星河路交叉口西南220米,121.580511,38.894022
大连市,海纳百川大连国际雕塑公园,风景名胜,全年,4.7,免费,2-3小时,清水街与凌滨路交叉口,121.548387,38.859794
大连市,银沙滩浴场,风景名胜,全年,4.6,免费,2-3小时,八一路街道滨海西路76号,121.613850,38.868401
大连市,英雄纪念公园,风景名胜,全年,4.3,免费,2-3小时,纪念街96号,121.625057,38.899430
大连市,金家街公园,风景名胜,全年,4.3,免费,2-3小时,金家街17-6号,121.594959,38.970200
大连市,白云鹿鸣,风景名胜,全年,4.3,免费,2-3小时,七莲银珠水系西侧,121.611432,38.887486
大连市,莲花山公园,风景名胜,全年,4.2,免费,2-3小时,白云街道威华街134号,121.626616,38.886691
大连市,七贤岭森林公园,风景名胜,全年,4.7,免费,2-3小时,七贤路,121.527508,38.848275
大连市,横山寺,风景名胜,全年,4.7,免费,2-3小时,龙王塘街道祥坛路1号,121.425463,38.883389
大连市,大连横山公园,风景名胜,全年,4.5,免费,2-3小时,祥坛路1号,121.416987,38.875708
大连市,安娜及刘长春居所,风景名胜,全年,4.3,免费,2-3小时,高尔基路195号,121.604643,38.902797
大连市,大连中山广场近代建筑群,风景名胜,全年,4.3,免费,2-3小时,解放街与白玉街交叉口西北80米,121.644391,38.920409
大连市,大连市基督教玉光街礼拜堂,风景名胜,全年,4.1,免费,2-3小时,玉光街2号,121.642567,38.919779
大连市,华乐广场,风景名胜,全年,4.3,免费,2-3小时,华乐街105-1号,121.683608,38.913878
大连市,观山汤泉,风景名胜,全年,4.5,免费,2-3小时,彩云园6号,121.553846,38.927537
大连市,大连西郊国家森林公园,风景名胜,全年,4.7,免费,2-3小时,红旗西路与张前线交汇处,121.454455,38.914975
大连市,仰望公园,风景名胜,全年,4.4,免费,2-3小时,西北路,121.565494,38.964305
大连市,鼎山公园,风景名胜,全年,4.3,免费,2-3小时,周山街鼎山公园,121.568034,38.952036
大连市,大连市奥林匹克广场,风景名胜,全年,4.1,免费,2-3小时,中山路9号(人民广场地铁站出入口步行220米),121.608011,38.908841
大连市,甘井子公园,风景名胜,全年,4.2,免费,2-3小时,新甘井子路14号,121.618449,38.975277
大连市,儿童公园-明泽湖,风景名胜,全年,4.2,免费,2-3小时,哈尔滨街1-88号(南山路129-225号)儿童公园,121.653994,38.916246
大连市,蟹子湾公园,风景名胜,全年,4.6,免费,2-3小时,海燕街7号,121.663958,38.987596
大连市,炮台山遗址,风景名胜,全年,4.2,免费,2-3小时,东港印象小区西侧炮台山上,121.675463,38.910434
大连市,学苑广场,风景名胜,全年,4.2,免费,2-3小时,杨树街2号(学苑广场地铁站C口步行110米),121.547761,38.875538
大连市,大连中华工学会旧址纪念馆,风景名胜,全年,4.1,免费,2-3小时,黄河路658号(西安路地铁站A口步行260米),121.589335,38.910439
大连市,秀月湾,风景名胜,全年,4.4,免费,2-3小时,亲海栈道东南侧100米,121.637708,38.863077
大连市,星海荧光海最佳打卡点,风景名胜,全年,4.3,免费,2-3小时,星海广场c2区,121.576818,38.875500
大连市,泊霞湾公园,风景名胜,全年,4.7,免费,2-3小时,革镇堡街道羊圈子村,121.533610,39.048050
大连市,晨曦沙滩,风景名胜,全年,4.7,免费,2-3小时,迎宾路1号棒棰岛风景区,121.717807,38.898186
大连市,星海大桥与星海栈桥观景点,风景名胜,全年,4.3,免费,2-3小时,中山路634号星海公园(西南角),121.567430,38.877440
大连市,前关城市中央湿地公园,风景名胜,全年,4.6,免费,2-3小时,关厢路,121.662981,39.035168
大连市,童牛岭风景区,风景名胜,全年,4.7,免费,2-3小时,梧桐街8号,121.786877,39.034204
大连市,基督教大连丰收堂,风景名胜,全年,4.2,免费,2-3小时,丰收路258号,121.574346,38.95958
大连市,天津街广场公园,风景名胜,全年,4.1,免费,2-3小时,友好路与天津街交叉口东南60米,121.639922,38.922770
大连市,小平岛广场,风景名胜,全年,4.4,免费,2-3小时,小平岛路210号,121.502977,38.832004
大连市,安山寺,风景名胜,全年,4.5,免费,2-3小时,大连革镇堡镇鞍子山村,121.471402,38.998760
大连市,石槽老人与海观海平台,风景名胜,全年,4.4,免费,2-3小时,山日民宿(老虎滩海洋公园3号店)东南侧200米,121.699778,38.867189
大连市,贡多拉乘船,风景名胜,全年,4.3,免费,2-3小时,港浦路与港东街交叉口东180米,121.683847,38.926747
大连市,星海广场,风景名胜,全年,4.9,免费,2-3小时,中山路572号(西南路口),121.587922,38.882006
大连市,莲花山观景台,风景名胜,全年,4.8,免费,2-3小时,迎春路60号森林动物园西山健身公园内,121.608727,38.879606
大连市,三八广场,风景名胜,全年,4.5,免费,2-3小时,五五路49号A,121.657286,38.919524
大连市,马栏广场,风景名胜,全年,4.7,免费,2-3小时,红旗街道红旗东路7号(马栏广场地铁站B口步行50米),121.554406,38.920146
大连市,付家庄公园,风景名胜,全年,4.8,免费,2-3小时,滨海西路53号,121.623488,38.865199
大连市,梭鱼湾滨海体育公园,风景名胜,全年,4.7,免费,2-3小时,钻石海湾北岸(东北路鹏辉道口东300米),121.616674,38.951368
大连市,二七广场,风景名胜,全年,4.4,免费,2-3小时,太阳街41号,121.662941,38.920214
大连市,大连观光塔(暂停开放),风景名胜,全年,4.3,免费,2-3小时,绿山巷99号,121.631717,38.905348
大连市,海之韵公园,风景名胜,全年,4.7,免费,2-3小时,滨海北路1号,121.701947,38.892604
大连市,梭鱼湾公园,风景名胜,全年,4.5,免费,2-3小时,周水子街道东海街与东海路交叉口西南50米,121.595163,38.949547
大连市,大连百年纪念城雕,风景名胜,全年,4.7,免费,2-3小时,星海湾广场南端,121.586807,38.876558
大连市,喷泉广场(暂停开放),风景名胜,全年,4.5,免费,2-3小时,星海广场,121.588009,38.881996
大连市,燕窝岭景区,风景名胜,全年,4.5,免费,2-3小时,桃源街道滨海路中段东部101号(近北大桥),121.650095,38.865664
大连市,老码头景区(暂停开放),风景名胜,全年,4.5,免费,2-3小时,港湾街1号中的四五泊区控制间,121.668657,38.931546
大连市,清真寺,风景名胜,全年,4.1,免费,2-3小时,北京街98-104号,121.612636,38.916134
大连市,广播电视塔,风景名胜,全年,4.2,免费,2-3小时,绿山巷99号大连观光塔(东北角),121.633030,38.906054
大连市,大连森林动物园摩天轮,风景名胜,全年,4.7,免费,2-3小时,滨海西路79号森林动物园南门,121.612553,38.873458
大连市,莲花山寺(暂停开放),风景名胜,全年,4.2,免费,2-3小时,迎春路60号,121.620922,38.884695
大连市,明珠公园,风景名胜,全年,4.4,免费,2-3小时,哲林街与虹韵路交叉口,121.533295,38.948459
大连市,海之韵公园旭日广场,风景名胜,全年,4.6,免费,2-3小时,海军广场街道滨海北路1号海之韵公园内(东侧),121.715513,38.897170
大连市,西尖山公园,风景名胜,全年,4.1,免费,2-3小时,弘基·书香园南区附近,121.549167,38.869479
大连市,欣乐公园,风景名胜,全年,4.2,免费,2-3小时,泡崖大街,121.556766,38.974482
大连市,大连棠梨乐游谷,风景名胜,全年,4.4,免费,2-3小时,红旗街道红旗西路七葫芦沟内,121.463668,38.939462
大连市,枣园,风景名胜,全年,4.2,免费,2-3小时,天河路与华东路交汇处,121.588876,38.982534
大连市,白云雁水峰景台,风景名胜,全年,4.0,免费,2-3小时,森林运动园西山揽车健身公园内,121.610631,38.887428
大连市,圣亚极地世界,风景名胜,全年,4.3,免费,2-3小时,中山路608-6-8号大连圣亚海洋世界(东北角),121.571707,38.879046
大连市,大连海之韵公园-观景台,风景名胜,全年,4.2,免费,2-3小时,滨海北路1号大连海之韵公园,121.716056,38.895259
大连市,七星广场,风景名胜,全年,4.3,免费,2-3小时,甘井子街道山中街石化公司,121.644245,38.975225
大连市,大连金龙寺国家森林公园,风景名胜,全年,4.6,免费,2-3小时,营升路,121.391492,38.941387
大连市,澐璟国际社区公园,风景名胜,全年,4.3,免费,2-3小时,礼水街8-5号,121.542383,38.850341
大连市,海之韵公园-海底大峡谷,风景名胜,全年,4.4,免费,2-3小时,滨海北路(海之韵地铁站B口步行450米),121.715892,38.907460
大连市,环卫公园,风景名胜,全年,4.1,免费,2-3小时,莲花山路53-1号,121.599990,38.895578
大连市,景山近邻公园,风景名胜,全年,3.9,免费,2-3小时,高洁巷24号,121.668667,38.893462
大连市,金沙坪景区,风景名胜,全年,4.3,免费,2-3小时,社会主义学院西侧170米,121.614783,38.867777
大连市,大连森林动物园野生放养园,风景名胜,全年,4.1,免费,2-3小时,南石道街迎春路60号大连森林动物园内(南侧),121.615573,38.873167
大连市,鸟语林,风景名胜,全年,4.4,免费,2-3小时,桃源街道滨海中路9号大连老虎滩海洋公园内(南侧),121.675963,38.869814
大连市,富民公园,风景名胜,全年,4.0,免费,2-3小时,马栏街道富民路,121.563012,38.926520
大连市,天空之湖,风景名胜,全年,4.3,免费,2-3小时,[],121.611683,38.989778
大连市,椒金山山体公园,风景名胜,全年,4.1,免费,2-3小时,东北路,121.601056,38.978333
大连市,南山健身公园,风景名胜,全年,3.9,免费,2-3小时,五五路,121.657096,38.908864
大连市,东方水城·圣马可广场,风景名胜,全年,4.3,免费,2-3小时,港浦路56-1号海昌·东方水城内(西侧),121.691762,38.924409
大连市,红星海滨海公园,风景名胜,全年,4.4,免费,2-3小时,红星海振鹏南路与滨海公路交汇处进入山体公园西行60米,121.793780,39.021255
大连市,香西游园,风景名胜,全年,4.2,免费,2-3小时,香西路157-1-5号,121.579488,38.928030
大连市,大连西郊国家森林公园-朝阳古寺,风景名胜,全年,4.3,免费,2-3小时,柳树南街,121.491320,38.905995
大连市,碧海山庄公园,风景名胜,全年,4.4,免费,2-3小时,大连湾街道,121.724764,39.006112
大连市,大黑山景区,风景名胜,全年,4.7,免费,2-3小时,凤祥路,121.791993,39.104356
大连市,永兴寺,风景名胜,全年,4.4,免费,2-3小时,营城子街道营城子村,121.394546,39.001534
大连市,大连西郊国家森林公园-棠梨湖公园,风景名胜,全年,4.3,免费,2-3小时,红旗街道大连西郊国家森林公园内(北侧),121.447192,38.937830
大连市,大连西郊国家森林公园-西山湖公园,风景名胜,全年,4.3,免费,2-3小时,大连西郊国家森林公园(东北角),121.498505,38.933564
大连市,漫游星海,风景名胜,全年,4.1,免费,2-3小时,大连贝壳博物馆西南侧160米,121.588564,38.876699
大连市,火炬体育公园,风景名胜,全年,4.2,免费,2-3小时,凌水街道高能街46号附近,121.517175,38.863453
大连市,龙王塘,风景名胜,全年,4.3,免费,2-3小时,龙王塘街道大连市高新园区,121.402759,38.832025
大连市,富国公园最高观景台,风景名胜,全年,4.0,免费,2-3小时,星海湾街道星海街173号富国公园(东北角),121.577951,38.893072
大连市,黑石礁广场,风景名胜,全年,4.2,免费,2-3小时,黑石礁街电子学校及下屯小区,121.556464,38.872171
大连市,马栏河运动公园,风景名胜,全年,4.0,免费,2-3小时,星海湾街道连华街77号附近,121.586884,38.904059
大连市,么么动物园,风景名胜,全年,3.9,免费,2-3小时,百年港湾奥特莱斯A5座3层,121.607510,38.930081
大连市,夏家河子海滨景区,风景名胜,全年,4.4,免费,2-3小时,G15(夏家河大桥),121.504269,39.028997
大连市,新有公园,风景名胜,全年,4.0,免费,2-3小时,敦煌西街653-2号附近,121.580921,38.932773
大连市,滨海公园,风景名胜,全年,4.5,免费,2-3小时,滨海公园(滨海大道南),121.751474,39.030946
大连市,南山大庙,风景名胜,全年,4.0,免费,2-3小时,昆明街道昆明街道麒麟西巷一号,121.642634,38.910218
大连市,大连英歌石植物园(暂停开放),风景名胜,全年,4.6,免费,2-3小时,高新园区旅顺中路南侧山谷里(过鞍子岭隧道3公里),121.358685,38.895900
大连市,大连西城生态旅游度假区,风景名胜,全年,3.9,免费,2-3小时,王家店水库附近,121.453169,38.935356
大连市,新新广场,风景名胜,全年,4.2,免费,2-3小时,软件园路104-128号,121.526568,38.887028
大连市,关东都督府邮便电信局旧址,风景名胜,全年,4.1,免费,2-3小时,中山广场10号(中山广场地铁站D1口步行80米),121.642778,38.922187
大连市,小平岛滨海栈道,风景名胜,全年,4.3,免费,2-3小时,海边搅拌站东侧200米,121.520508,38.831028
大连市,大连森林动物园广场,风景名胜,全年,4.2,免费,2-3小时,南石道街迎春路60号大连森林动物园内(南侧),121.610814,38.873158
大连市,彩虹灯塔,风景名胜,全年,4.5,免费,2-3小时,百航山庄,121.533496,39.047896
大连市,泽龙湖公园,风景名胜,全年,4.1,免费,2-3小时,松江路附近,121.540864,38.969041
大连市,圣象天门沙滩,风景名胜,全年,4.3,免费,2-3小时,海之韵公园旭日广场南侧160米,121.715877,38.895759
大连市,大顶山生态公园,风景名胜,全年,4.0,免费,2-3小时,[],121.548319,38.900531
大连市,大连森林动物园-熊猫馆,风景名胜,全年,4.2,免费,2-3小时,大连森林动物园野生放养园,121.613365,38.875183
大连市,达里尼市政厅旧址(暂停开放),风景名胜,全年,4.2,免费,2-3小时,烟台街1号,121.632963,38.928814
大连市,大连湾三角地,风景名胜,全年,4.2,免费,2-3小时,大连湾镇大连湾街,121.711493,39.027064
大连市,海之韵公园-观景台,风景名胜,全年,4.2,免费,2-3小时,滨海北路1号海之韵公园内(东侧),121.711864,38.894012
大连市,七贤岭海滩,风景名胜,全年,4.4,免费,2-3小时,七贤岭森林公园(西南角),121.525592,38.846246
大连市,大连开发区文化广场,风景名胜,全年,4.1,免费,2-3小时,金马路286号,121.790025,39.048926
大连市,富民公园-石门山公园,风景名胜,全年,3.9,免费,2-3小时,马栏街道富民路富民公园,121.560861,38.929538
大连市,欣荣广场,风景名胜,全年,4.0,免费,2-3小时,欣荣路与宏欣街交汇处,121.557880,38.978537
大连市,碧海观,风景名胜,全年,4.3,免费,2-3小时,大连湾街道碧海山庄东面,121.729910,39.004573
大连市,西尖山观景台,风景名胜,全年,4.1,免费,2-3小时,西尖山公园,121.549220,38.868486
大连市,海贝广场,风景名胜,全年,4.5,免费,2-3小时,金普新区开发区海滨路(5路红星海),121.784442,39.026664
大连市,五彩城广场,风景名胜,全年,4.3,免费,2-3小时,开发区辽河西路88号(开发区地铁站B口步行260米),121.775397,39.051936
大连市,九匹马广场,风景名胜,全年,4.3,免费,2-3小时,欣荣路与宏欣街交叉口北20米,121.557852,38.978521
大连市,妈祖庙,风景名胜,全年,4.4,免费,2-3小时,大连湾街道大连湾街道拉树房村,121.627021,39.073820
大连市,青岛啤酒交易所,风景名胜,全年,4.2,免费,2-3小时,星海广场与游艇路交叉口东南360米,121.586647,38.877844
大连市,红叶广场,风景名胜,全年,4.0,免费,2-3小时,桂林街道山林街枫林苑,121.647402,38.912990
大连市,孤独的树景区,风景名胜,全年,4.2,免费,2-3小时,[],121.629494,38.957628
大连市,大连卧佛寺,风景名胜,全年,4.2,免费,2-3小时,辛相路,121.504010,38.998707
大连市,银沙滩观景台,风景名胜,全年,4.1,免费,2-3小时,滨海西路81号猫在海边咖啡店大院内,121.615142,38.868086
大连市,燕窝岭海滩,风景名胜,全年,4.2,免费,2-3小时,桃源街道滨海路中段东部101号燕窝岭景区,121.661021,38.862868
大连市,炮台山公园,风景名胜,全年,4.3,免费,2-3小时,哈尔滨路,121.766122,39.053009
大连市,傅家庄公共海滩,风景名胜,全年,4.2,免费,2-3小时,滨海路53号海滨风景区中部傅家庄公园内,121.622239,38.865051
大连市,香炉礁社区广场,风景名胜,全年,4.0,免费,2-3小时,香川街29号(香炉礁地铁站A口步行390米),121.599548,38.927382
大连市,201路百年文旅专列,风景名胜,全年,4.1,免费,2-3小时,民主广场与长江路交叉口西40米,121.648213,38.926581
大连市,富民广场,风景名胜,全年,4.1,免费,2-3小时,富民路182号,121.561348,38.925406
大连市,十八盘,风景名胜,全年,4.2,免费,2-3小时,滨海北路1号海之韵公园(东北角),121.715294,38.904766
大连市,迎宾园,风景名胜,全年,4.0,免费,2-3小时,迎宾路5号11-3-102附近,121.691369,38.903402
大连市,大连湾体育公园,风景名胜,全年,4.2,免费,2-3小时,艺山街与德艺街交叉口西北320米,121.654082,39.047576
大连市,文苑广场,风景名胜,全年,3.8,免费,2-3小时,长春路208号,121.615943,38.902163
大连市,春柳公园B区,风景名胜,全年,4.2,免费,2-3小时,西南路辅路与珍珠巷交叉口西280米,121.579290,38.942014
大连市,滨海怪坡,风景名胜,全年,4.1,免费,2-3小时,滨海北路海之韵公园,121.711203,38.90154
大连市,象鼻山,风景名胜,全年,4.3,免费,2-3小时,梦海西园东南侧约150米,121.509291,38.822134
大连市,金普新区体育公园,风景名胜,全年,4.3,免费,2-3小时,马桥子街道抚顺街50号蓝海高尔夫俱乐部西侧,121.763221,39.037884
大连市,沙河口区兴工街基督教礼拜堂,风景名胜,全年,3.8,免费,2-3小时,西安路大连福佳爱琴海购物公园,121.588537,38.917635
大连市,大连森林动物园-怡心园,风景名胜,全年,4.2,免费,2-3小时,南石道街迎春路60号大连森林动物园,121.607205,38.884277
大连市,珊瑚馆,风景名胜,全年,4.1,免费,2-3小时,桃源街道滨海中路9号(近解放路)大连老虎滩海洋公园内(西南角),121.674238,38.877626
大连市,磨盘山公园,风景名胜,全年,4.1,免费,2-3小时,凌水街道大连高新区哈佛映像,121.512204,38.867204
大连市,大连市中山区学士街基督教堂,风景名胜,全年,4.1,免费,2-3小时,学士街125号,121.667556,38.918456
大连市,劳模公园,风景名胜,全年,4.1,免费,2-3小时,锦绣路74号附近,121.548620,38.940599
大连市,满化码头旧址,风景名胜,全年,4.1,免费,2-3小时,梭鱼湾工程项目部东北侧110米,121.633185,38.959959
大连市,老年活动健身广场,风景名胜,全年,3.7,免费,2-3小时,华北路春柳游园(大连市第三中学附近),121.583089,38.936365
大连市,祈福钟,风景名胜,全年,4.0,免费,2-3小时,解放路5号劳动公园台地园,121.635961,38.911567
大连市,燕窝岭景区-滨海中路观景台,风景名胜,全年,4.1,免费,2-3小时,桃源街道滨海路中段东部101号燕窝岭景区内(西侧),121.645490,38.865120
大连市,岚山公园,风景名胜,全年,4.1,免费,2-3小时,大连西郊国家森林公园-棠梨湖公园,121.447166,38.942474
大连市,凌水湾公园,风景名胜,全年,4.2,免费,2-3小时,国家海洋环境检测中心旁,121.541475,38.868297
大连市,十里岗公园,风景名胜,全年,4.2,免费,2-3小时,金普新区马桥子街道铁山西路17-1号,121.763994,39.065619
大连市,大连老虎滩海洋公园-虎雕广场,风景名胜,全年,4.1,免费,2-3小时,滨海中路9号大连老虎滩海洋公园(东南角),121.678848,38.870027
大连市,棒棰岛风景区-棒棰岛宾馆望海亭,风景名胜,全年,4.2,免费,2-3小时,老虎滩街道迎宾路1号棒棰岛宾馆内,121.711871,38.890716
大连市,贡多拉船站,风景名胜,全年,4.3,免费,2-3小时,港浦路20号海昌·东方水城二期,121.691374,38.924451
大连市,燕窝岭景区-秀月园,风景名胜,全年,4.2,免费,2-3小时,桃源街道滨海路中段东部101号燕窝岭景区内(西侧),121.636936,38.864930
大连市,中央生活公园,风景名胜,全年,4.1,免费,2-3小时,玉浓街华润二十四城内,121.540902,38.975980
大连市,向应广场,风景名胜,全年,4.3,免费,2-3小时,和平路70号,121.716062,39.106305
鞍山市,玉佛山风景区-二一九公园,风景名胜,全年,4.6,免费,2-3小时,园林路64号,123.007464,41.105706
鞍山市,玉佛山,风景名胜,全年,4.4,免费,2-3小时,绿化街58号,123.021344,41.100245
鞍山市,烈士山公园,风景名胜,全年,4.5,免费,2-3小时,山南烈士山人防公园(中华南路西),122.991287,41.100060
鞍山市,鞍钢博物馆,风景名胜,全年,4.7,免费,2-3小时,环钢路1号(鞍钢正门西侧),122.987093,41.121946
鞍山市,鞍山动物园,风景名胜,全年,4.6,免费,2-3小时,二一九路64号二一九公园内,123.010114,41.105738
鞍山市,玉佛苑,风景名胜,全年,4.7,免费,2-3小时,鞍山市高新区绿化街58号,123.013539,41.106306
鞍山市,胜利广场,风景名胜,全年,4.5,免费,2-3小时,胜利街道五一路18-8号,122.995726,41.109495
鞍山市,永乐公园,风景名胜,全年,4.4,免费,2-3小时,民生西路与交通路交叉口旁(鞍山第六中学),122.955474,41.113231
鞍山市,玉佛山风景区-罗汉圣地,风景名胜,全年,3.9,免费,2-3小时,天山路39号,123.016984,41.101841
鞍山市,清真寺,风景名胜,全年,4.3,免费,2-3小时,铁西七道街122号,122.975756,41.114672
鞍山市,孟泰公园,风景名胜,全年,4.4,免费,2-3小时,鞍千路与中华北路交汇处,123.029949,41.144587
鞍山市,玉佛寺,风景名胜,全年,4.4,免费,2-3小时,绿化街58号,123.016634,41.101523
鞍山市,千山风景区,风景名胜,全年,4.8,免费,2-3小时,千山东路1号千山景区广播站附近,123.142153,41.028716
鞍山市,东山风景区,风景名胜,全年,4.0,免费,2-3小时,绿化街58号玉佛山,123.026483,41.099383
鞍山市,鞍山市铁东区绿化街基督教堂,风景名胜,全年,4.3,免费,2-3小时,绿化街41-1号附近,123.011753,41.095822
鞍山市,鞍山铁东工人街彩绘墙,风景名胜,全年,4.3,免费,2-3小时,常青街19号,123.001805,41.090868
鞍山市,汤岗子温泉,风景名胜,全年,4.4,免费,2-3小时,汤岗子镇温泉街1号,122.906573,41.009792
鞍山市,新营广场,风景名胜,全年,4.1,免费,2-3小时,东解放路200号,123.002866,41.087445
鞍山市,老院子景区,风景名胜,全年,4.6,免费,2-3小时,316省道,123.194078,41.016459
鞍山市,千山-仙人台国家森林公园,风景名胜,全年,4.0,免费,2-3小时,温泉街道千山街道千山东路79号千山风景名胜区,123.146779,41.025943
鞍山市,鞍山兴盛基督教堂,风景名胜,全年,4.1,免费,2-3小时,民北街5甲,122.969295,41.113470
鞍山市,219公园乐民健身广场,风景名胜,全年,4.1,免费,2-3小时,绿化街,123.008164,41.096825
鞍山市,湖南公园,风景名胜,全年,4.1,免费,2-3小时,长兴街,123.013807,41.082365
鞍山市,千山湾,风景名胜,全年,4.4,免费,2-3小时,千山东路435号,123.090509,41.100938
鞍山市,对桩石风景区,风景名胜,全年,4.3,免费,2-3小时,[],123.052550,41.000288
鞍山市,鞍钢雷锋纪念馆,风景名胜,全年,0.0,免费,2-3小时,一钢路与钢南路交叉口东220米,122.994827,41.136023
鞍山市,千山风景区-五龙宫,风景名胜,全年,4.4,免费,2-3小时,千山风景区内(南侧),123.134031,41.007209
鞍山市,东山风景区-佛光寺,风景名胜,全年,4.1,免费,2-3小时,槐香路东150米,123.015752,41.100931
鞍山市,yoyo公园,风景名胜,全年,4.2,免费,2-3小时,解放东路鼎龙国际小区旁,123.016151,41.072723
鞍山市,大孤山铁矿矿坑观景台,风景名胜,全年,4.3,免费,2-3小时,铁南东街1004号,123.056563,41.057535
鞍山市,运粮河湿地公园,风景名胜,全年,4.3,免费,2-3小时,千山西路辅路与盛达路交叉口西140米,122.916289,41.154447
鞍山市,双龙山旅游景区,风景名胜,全年,4.1,免费,2-3小时,鞍羊线与宁东线交汇南670米,122.908005,41.069195
鞍山市,鞍山动物园-大熊猫馆,风景名胜,全年,4.0,免费,2-3小时,千山中路,123.009755,41.108557
鞍山市,石头记千山大观园,风景名胜,全年,4.4,免费,2-3小时,七岭子村2188号,123.114651,41.087394
鞍山市,幽冥宫,风景名胜,全年,4.3,免费,2-3小时,鞍羊线与宁东线交汇南670米正东方向110米,122.885476,41.060554
鞍山市,鞍山烈士纪念馆,风景名胜,全年,4.1,免费,2-3小时,东民生路25号,122.992245,41.101547
鞍山市,仙人台,风景名胜,全年,4.1,免费,2-3小时,千山风景名胜区,123.133058,40.993733
鞍山市,对炉山,风景名胜,全年,3.9,免费,2-3小时,团结街,122.997069,41.126152
鞍山市,祥云寺,风景名胜,全年,4.3,免费,2-3小时,唐家房镇西果园村,123.003304,40.992071
鞍山市,万水河公园,风景名胜,全年,4.2,免费,2-3小时,鞍千路鞍山市第一中学(新校区)旁,123.089910,41.110880
鞍山市,千山积翠门,风景名胜,全年,4.3,免费,2-3小时,仙人台国家森林公园,123.147446,41.026038
鞍山市,龙宫温泉,风景名胜,全年,4.2,免费,2-3小时,温泉路1号,122.907593,41.008722
鞍山市,灵山寺,风景名胜,全年,4.3,免费,2-3小时,羊草庄路中冶东北建设工业园体育馆北,123.063752,41.163098
鞍山市,香岩寺,风景名胜,全年,4.2,免费,2-3小时,鞍下线仙人台附近,123.126613,40.993276
鞍山市,慈航寺,风景名胜,全年,4.3,免费,2-3小时,温泉街道韩家峪村357号,123.166354,41.023259
鞍山市,千山-古道关,风景名胜,全年,4.1,免费,2-3小时,千山东路79号千山风景区内(西侧),123.103803,41.020078
鞍山市,三江跃虎城,风景名胜,全年,4.4,免费,2-3小时,鞍海路48栋,122.896839,40.976895
鞍山市,双潭公园,风景名胜,全年,4.0,免费,2-3小时,深沟寺街道深沟寺六区,123.044509,41.121198
鞍山市,科大天桥,风景名胜,全年,3.9,免费,2-3小时,致远路与明德路交叉口西北160米,123.064117,41.105088
鞍山市,大安寺,风景名胜,全年,4.2,免费,2-3小时,仙人台国家森林公园,123.141721,40.990894
鞍山市,铁西恩惠基督教堂,风景名胜,全年,4.0,免费,2-3小时,铁西三道街52甲-S17-20,122.979553,41.109573
鞍山市,中会寺,风景名胜,全年,4.2,免费,2-3小时,千山东路79号千山风景名胜区千山仙人台国家森林公园内,123.142093,41.002231
鞍山市,千山风景区-五佛顶景区,风景名胜,全年,4.0,免费,2-3小时,千山东路千山风景名胜区内,123.111474,41.023351
鞍山市,皈源寺,风景名胜,全年,4.2,免费,2-3小时,大孤山街道千山风景区鞍下线,123.083088,41.023576
鞍山市,千山风景区-龙泉寺,风景名胜,全年,4.1,免费,2-3小时,千山风景区内(西侧),123.118775,41.026027
鞍山市,鞍山驿堡,风景名胜,全年,4.0,免费,2-3小时,东矿街,122.940361,41.054763
鞍山市,学校入学门,风景名胜,全年,4.0,免费,2-3小时,第二十七中学附近,123.023839,41.125534
鞍山市,无量观,风景名胜,全年,4.1,免费,2-3小时,千山风景区内(西侧),123.126445,41.026120
鞍山市,万水河公园(北区),风景名胜,全年,4.1,免费,2-3小时,万水河北路与胜利北路交汇处,123.040484,41.160693
鞍山市,擢秀园(不对外开放),风景名胜,全年,3.8,免费,2-3小时,钢西路,122.976520,41.162263
鞍山市,鞍山市二一九公园手划船,风景名胜,全年,4.0,免费,2-3小时,工农街与园林大道交叉口东360米,123.007768,41.102594
鞍山市,鞍钢记忆钢铁主题公园,风景名胜,全年,3.8,免费,2-3小时,环钢路1号鞍钢博物馆,122.986891,41.121241
鞍山市,玉佛苑天王殿,风景名胜,全年,3.9,免费,2-3小时,绿化街58号玉佛苑,123.013680,41.102465
鞍山市,上对桩石村-龙王庙,风景名胜,全年,4.2,免费,2-3小时,鞍山赵祺宠物训练寄养学校西侧,123.063691,40.994889
鞍山市,千山风景区-大佛寺,风景名胜,全年,4.1,免费,2-3小时,千山风景区内(西侧),123.112923,41.017252
鞍山市,火炬广场,风景名胜,全年,4.0,免费,2-3小时,火炬广场西50米,123.086091,41.102133
鞍山市,公园1953体育公园,风景名胜,全年,4.1,免费,2-3小时,矿工路北侧,123.015196,41.066708
鞍山市,娘娘庙,风景名胜,全年,4.1,免费,2-3小时,汤岗子街道,122.900194,41.012167
鞍山市,天源吉布世温泉水乐园,住宿服务,全年,4.3,免费,2-3小时,耿庄镇三星生态农业有限公司,122.722981,40.989066
鞍山市,花神庙,风景名胜,全年,4.1,免费,2-3小时,通海大道,122.893617,41.063647
鞍山市,健身广场,风景名胜,全年,3.8,免费,2-3小时,深南街道深沟寺2区,123.031097,41.127510
鞍山市,井井寮旧址,风景名胜,全年,3.9,免费,2-3小时,五一路与东山街交叉口西北40米,122.992079,41.116196
鞍山市,千山风景区-灵岩寺,风景名胜,全年,4.0,免费,2-3小时,千山风景区,123.125732,41.021854
鞍山市,沙河基督教堂,风景名胜,全年,3.9,免费,2-3小时,万胜街83甲号,123.043671,41.156397
鞍山市,7号桥廉政公园,风景名胜,全年,4.1,免费,2-3小时,千山东路702号,123.086432,41.101664
鞍山市,老院子动物园,风景名胜,全年,4.2,免费,2-3小时,连鞍线韩家峪村老院子景区内(西南角),123.189118,41.014361
鞍山市,千山-财神庙,风景名胜,全年,4.0,免费,2-3小时,千山东路1号天上天景区内,123.130955,41.025121
鞍山市,鞍山市铁西区沟家寨天主教堂,风景名胜,全年,3.9,免费,2-3小时,南三环北侧沟家寨村委会后骆驼山对面,122.925879,41.073105
鞍山市,滨河公园,风景名胜,全年,4.1,免费,2-3小时,腾鳌经济开发区,122.835967,41.078142
鞍山市,西苑牌楼,风景名胜,全年,3.9,免费,2-3小时,西解放路555号,122.943127,41.128169
鞍山市,太和宫,风景名胜,全年,3.9,免费,2-3小时,仙人台国家森林公园,123.114129,41.002325
鞍山市,月明山,风景名胜,全年,3.9,免费,2-3小时,[],123.013940,41.055588
鞍山市,樱山体育公园,风景名胜,全年,4.0,免费,2-3小时,[],123.055906,41.159081
鞍山市,平安寺,风景名胜,全年,4.0,免费,2-3小时,唐家房镇鸡王屯村,122.978346,41.030517
鞍山市,抗战文化博览园,风景名胜,全年,3.7,免费,2-3小时,中兴路西100米,122.831847,41.040179
鞍山市,凤之舞广场,风景名胜,全年,3.5,免费,2-3小时,千山中路108号,123.035931,41.107431
鞍山市,夹扁石,风景名胜,全年,3.9,免费,2-3小时,千山东路1号天上天景区内,123.126888,41.026079
鞍山市,厝石山公园,风景名胜,全年,4.4,免费,2-3小时,公园街,122.753635,40.847538
鞍山市,金宠驿西高地,风景名胜,全年,4.1,免费,2-3小时,千山西路536号,122.929572,41.139357
鞍山市,烈士山公园-英泽湖,风景名胜,全年,3.6,免费,2-3小时,烈士山公园(东南角),122.992484,41.097173
鞍山市,炼铁桥洞,风景名胜,全年,3.9,免费,2-3小时,和平路1号,122.988187,41.133306
鞍山市,闪闪游乐园,风景名胜,全年,3.8,免费,2-3小时,鞍山动物园,123.011883,41.106635
鞍山市,浪漫小镇,风景名胜,全年,4.2,免费,2-3小时,湖畔小镇东北侧110米,122.734310,41.011468
鞍山市,千山风景区-大佛景区,风景名胜,全年,3.7,免费,2-3小时,千山东路千山风景名胜区,123.116246,41.015383
鞍山市,四方台烽火台,风景名胜,全年,3.7,免费,2-3小时,建国大道与四方台立交桥交叉口东南100米,122.969453,41.083307
鞍山市,瑶瑟台,风景名胜,全年,3.8,免费,2-3小时,玉岱美庐西北侧290米,123.055912,41.121993
鞍山市,鞍山市人民公园,风景名胜,全年,4.3,免费,2-3小时,胜利宾馆对面,123.002353,41.116226
鞍山市,乾隆绿道,风景名胜,全年,4.4,免费,2-3小时,西沟,123.046593,40.998809
鞍山市,红楼-1953文旅小镇,风景名胜,全年,3.9,免费,2-3小时,解放东路南铁北东街西,123.050710,41.065947
鞍山市,鞍山青籽世家玉石博物馆,风景名胜,全年,4.1,免费,2-3小时,立山区高新区临城街1栋,123.082469,41.107877
鞍山市,天外天,风景名胜,全年,3.9,免费,2-3小时,千山东路1号天上天景区内,123.122643,41.029608
鞍山市,千山风景区-中会寺山门,风景名胜,全年,4.0,免费,2-3小时,中会寺,123.143017,41.002164
鞍山市,静湖公园,风景名胜,全年,3.9,免费,2-3小时,中华南路243号,123.007256,41.120613
鞍山市,东鞍山铁矿观景台,风景名胜,全年,3.8,免费,2-3小时,[],122.955266,41.047744
鞍山市,汤岗子热矿泥温泉,风景名胜,全年,4.0,免费,2-3小时,汤岗子镇温泉街1号,122.907087,41.010531
鞍山市,祖树园,风景名胜,全年,3.9,免费,2-3小时,下上线西100米,123.052799,40.995319
鞍山市,一线天,风景名胜,全年,3.9,免费,2-3小时,千山东路1号天上天景区内,123.124593,41.025746
鞍山市,青云观,风景名胜,全年,3.8,免费,2-3小时,千山风景区-五佛顶景区内,123.099024,41.038992
鞍山市,调军台公园,风景名胜,全年,3.8,免费,2-3小时,亚世光电股份有限公司北(越岭路),123.105558,41.120001
鞍山市,湖南公园廉洁文化主题公园,风景名胜,全年,3.6,免费,2-3小时,湖南街与莘英路交叉口湖南公园(东北角),123.015465,41.084026
鞍山市,鞍钢孟泰纪念馆,风景名胜,全年,0.0,免费,2-3小时,烧结路与柳西街交叉口西南340米,122.979438,41.127938
鞍山市,千山古道关薛仁贵跃马东征雕塑,风景名胜,全年,3.7,免费,2-3小时,古道关内,123.102070,41.023870
鞍山市,深沟寺广场,风景名胜,全年,3.7,免费,2-3小时,莘英路深沟寺六区,123.040745,41.122536
鞍山市,五一路口袋公园,风景名胜,全年,3.6,免费,2-3小时,五一路64号甲1号,122.990220,41.117281
鞍山市,对桩石怪坡,风景名胜,全年,3.8,免费,2-3小时,[],123.073876,40.988367
鞍山市,桃花溪谷,风景名胜,全年,3.8,免费,2-3小时,千山风景区内(西侧),123.107819,41.023379
鞍山市,千山-太和宫-山门,风景名胜,全年,4.0,免费,2-3小时,千山东路79号千山风景名胜区千山仙人台国家森林公园太和宫内(东南角),123.114192,41.002206
鞍山市,缘生活广场,风景名胜,全年,3.5,免费,2-3小时,安乐街与光荣街交叉口北20米,122.985095,41.098257
鞍山市,鞍山市革命烈士纪念碑,风景名胜,全年,3.6,免费,2-3小时,东民生路25号,122.990532,41.101050
鞍山市,宝泉观道家寺庙,风景名胜,全年,4.0,免费,2-3小时,[],123.074011,40.963679
鞍山市,名山地藏寺,风景名胜,全年,4.1,免费,2-3小时,福安路,122.865408,41.063144
鞍山市,玉佛山风景区-怀香园,风景名胜,全年,3.8,免费,2-3小时,绿化街58号,123.014503,41.113216
鞍山市,腾鳌古镇,风景名胜,全年,3.8,免费,2-3小时,腾苏线西侧,122.832636,41.040261
鞍山市,花溪地公园,风景名胜,全年,4.3,免费,2-3小时,兴海街道-开发区二台子唯美品格南门,122.698130,40.869399
鞍山市,慈化寺,风景名胜,全年,4.0,免费,2-3小时,甘泉镇,122.855249,40.967277
鞍山市,北关转盘,风景名胜,全年,4.3,免费,2-3小时,中街北路与白杨南街交叉口南60米,122.752986,40.854083
鞍山市,五龙宫-五龙宫牌坊,风景名胜,全年,3.9,免费,2-3小时,千山东路1-12五龙宫内,123.134813,41.008062
鞍山市,北海汇温泉度假温泉,风景名胜,全年,3.9,免费,2-3小时,"温泉街道千山路倪家台村,近天龙温泉村(清水湾村附近)景区大门口",123.141111,41.053284
鞍山市,郎家厂烈士陵园,生活服务,全年,0.0,免费,2-3小时,391乡道附近,122.941006,41.187456
鞍山市,药王庙,风景名胜,全年,3.9,免费,2-3小时,温泉街道西荒地,122.720581,41.008029
鞍山市,云潭,风景名胜,全年,4.0,免费,2-3小时,千山风景区内(西侧),123.118485,41.023559
鞍山市,大安寺-山门,风景名胜,全年,3.9,免费,2-3小时,大安寺内(南侧),123.141715,40.990347
鞍山市,灵岩寺-山门,风景名胜,全年,3.8,免费,2-3小时,千山东路1-8灵岩寺内,123.125537,41.021833
鞍山市,园通观,风景名胜,全年,3.8,免费,2-3小时,千山东路1号千山风景区(西南角),123.120109,41.018756
鞍山市,石榴广场,风景名胜,全年,3.7,免费,2-3小时,星火街与千山西路交叉口西160米,122.957319,41.128999
鞍山市,山南就业广场,风景名胜,全年,3.7,免费,2-3小时,山南街86号,122.985215,41.100987
鞍山市,鞍山眼镜湖,风景名胜,全年,3.6,免费,2-3小时,绥化街与木兰街交叉口西100米,123.044567,41.121222
鞍山市,双龙山公园,风景名胜,全年,4.1,免费,2-3小时,双龙山,122.778816,40.865564
鞍山市,大佛寺山门,风景名胜,全年,3.7,免费,2-3小时,千山风景区-大佛寺东北侧160米,123.113527,41.018628
鞍山市,口袋公园,风景名胜,全年,3.8,免费,2-3小时,高新万科城北侧,123.087098,41.132381
鞍山市,海城市腾鳌镇清真寺,风景名胜,全年,3.8,免费,2-3小时,永安街与新城路交叉口东120米,122.830765,41.081278
鞍山市,无量观广场,风景名胜,全年,3.8,免费,2-3小时,千山风景区,123.127303,41.022927
鞍山市,普安观,风景名胜,全年,3.8,免费,2-3小时,千山东路1-15号,123.108186,41.030162
鞍山市,圣仙宫遗址,风景名胜,全年,3.8,免费,2-3小时,仙人台国家森林公园,123.102724,41.007661
鞍山市,慈祥观,风景名胜,全年,3.9,免费,2-3小时,千山东路79号千山风景名胜区千山仙人台国家森林公园内,123.129493,41.011774
鞍山市,天上天景区,风景名胜,全年,3.7,免费,2-3小时,千山风景区内(西侧),123.126064,41.025998
鞍山市,古刹龙泉,风景名胜,全年,3.8,免费,2-3小时,千山风景区-龙泉寺,123.118771,41.024075
鞍山市,财神殿,风景名胜,全年,3.8,免费,2-3小时,千山风景区内(西侧),123.108311,41.029957
鞍山市,三学寺,风景名胜,全年,4.4,免费,2-3小时,三义街(乾隆巷西),122.747193,40.847395
鞍山市,斗姆宫遗址,风景名胜,全年,3.9,免费,2-3小时,千山东路79号千山风景名胜区千山仙人台国家森林公园内,123.099124,41.009126
鞍山市,千山金刚峰,风景名胜,全年,3.8,免费,2-3小时,仙人台国家森林公园,123.140115,40.989717
鞍山市,玉龙河公园,风景名胜,全年,3.9,免费,2-3小时,[],123.100819,41.086577
鞍山市,219湖边凉亭,风景名胜,全年,3.6,免费,2-3小时,园林路64号玉佛山风景区-二一九公园(东南角),123.009641,41.101652
鞍山市,樊梨花山寨广场,风景名胜,全年,3.8,免费,2-3小时,连鞍线,123.183409,40.998700
鞍山市,山西会馆,风景名胜,全年,4.3,免费,2-3小时,环城西路与筢头街交叉口西120米,122.744126,40.848205
鞍山市,圣恩堂,风景名胜,全年,3.7,免费,2-3小时,紫云东方喜悦惠民街122-19-S7圣恩堂,122.949116,41.136593
鞍山市,河滨公园,风景名胜,全年,4.2,免费,2-3小时,光明路13号,122.737879,40.855682
鞍山市,老年公园,风景名胜,全年,3.6,免费,2-3小时,迎宾街16号,123.004290,41.109199
鞍山市,明长城-千山段-边台子长城遗址,风景名胜,全年,3.8,免费,2-3小时,汤析线,122.951249,40.960219
鞍山市,百岁崖,风景名胜,全年,3.7,免费,2-3小时,[],123.049631,41.096191
鞍山市,斗姥宫,风景名胜,全年,3.7,免费,2-3小时,鞍上线西南侧,123.096428,41.006730
鞍山市,五佛顶索道上站,风景名胜,全年,3.7,免费,2-3小时,千山风景区内(西侧),123.111436,41.023418
鞍山市,钒熙公园,风景名胜,全年,3.5,免费,2-3小时,环钢路与中央大道交叉口西南100米,122.987184,41.119301
鞍山市,古城公园,风景名胜,全年,3.8,免费,2-3小时,东矿街与建国大道交叉口东南200米,122.940594,41.054536
鞍山市,南台地藏寺,风景名胜,全年,4.0,免费,2-3小时,[],122.887943,40.909972
鞍山市,英摩路山顶广场,风景名胜,全年,3.9,免费,2-3小时,[],123.043157,40.948728
鞍山市,保宁寺,风景名胜,全年,3.9,免费,2-3小时,[],122.919485,40.859947
鞍山市,玉皇庙,风景名胜,全年,4.2,免费,2-3小时,同泽路,122.766409,40.836941
鞍山市,大悲古寺(不对外开放),风景名胜,全年,4.3,免费,2-3小时,毛祁镇赵八里村16号,122.705033,40.817843
鞍山市,无极九天玄女宫,风景名胜,全年,3.7,免费,2-3小时,千山东路79号千山风景名胜区千山仙人台国家森林公园内,123.132479,40.997841
鞍山市,千山风景区-弥勒宝塔,风景名胜,全年,3.7,免费,2-3小时,千山东路79号千山风景名胜区大佛景区内,123.117684,41.015909
鞍山市,莲花寺,风景名胜,全年,4.1,免费,2-3小时,拦河村,122.796519,40.819494
鞍山市,镇宁寺,风景名胜,全年,3.9,免费,2-3小时,399乡道与兰唐线交叉口南200米,122.921353,41.188622
鞍山市,辽宁科技大学-博雅广场,风景名胜,全年,3.9,免费,2-3小时,高新区千山中路189号辽宁科技大学,123.062202,41.104351
鞍山市,千山大安寺客堂,风景名胜,全年,3.6,免费,2-3小时,千山风景区内(南侧),123.141416,40.990913
鞍山市,鞍山市摩云山梨花谷,风景名胜,全年,3.8,免费,2-3小时,摩云山大豹子峪梨花谷,123.070924,40.934879
鞍山市,鎏金庵关帝庙,风景名胜,全年,3.8,免费,2-3小时,千山东路79号千山风景名胜区内,123.128808,41.019730
鞍山市,新堡保安寺,风景名胜,全年,3.7,免费,2-3小时,雪莲超市北侧110米,122.890046,41.087970
鞍山市,基督教堂,风景名胜,全年,4.0,免费,2-3小时,站前路24号,122.813233,40.927078
鞍山市,关帝庙,风景名胜,全年,3.8,免费,2-3小时,[],123.003837,40.934176
鞍山市,掩体遗址,风景名胜,全年,3.9,免费,2-3小时,孟深街西150米,123.039040,41.139490
鞍山市,鞍山石头城,风景名胜,全年,3.7,免费,2-3小时,宁东线双龙山旅游景区,122.906841,41.073259
鞍山市,千山风景区-天上天广场,风景名胜,全年,3.7,免费,2-3小时,千山风景区,123.131161,41.024575
鞍山市,耿庄刘家村顾家套子灵光寺,风景名胜,全年,3.7,免费,2-3小时,耿庄镇刘家村顾家套子,122.661308,41.025596
鞍山市,街心公园,风景名胜,全年,3.8,免费,2-3小时,汤岗子镇,122.918105,41.014438
鞍山市,鞍山市大孤山基督教活动点,风景名胜,全年,3.6,免费,2-3小时,[],123.054004,41.057396
鞍山市,千山-天成弥勒道场,风景名胜,全年,3.5,免费,2-3小时,千山东路79号千山风景名胜区大佛景区内,123.112689,41.017127
鞍山市,千山风景区-祖越寺,风景名胜,全年,3.7,免费,2-3小时,千山东路1-6号,123.125136,41.023876
鞍山市,背荫观,风景名胜,全年,3.7,免费,2-3小时,马驿屯骆驼山东峰,122.928468,41.059113
鞍山市,鞍山奥体冰雪嘉年华,风景名胜,全年,3.2,免费,2-3小时,达道湾街道辽宁省鞍山市铁西区千山西路鞍山奥体中心,122.919082,41.150012
鞍山市,汤岗子温泉旅游度假区-亭子,风景名胜,全年,3.6,免费,2-3小时,汤岗子镇温泉街1号汤岗子温泉旅游度假区内,122.907293,41.009423
鞍山市,美凌湖公园,风景名胜,全年,3.8,免费,2-3小时,[],122.812840,40.932073
鞍山市,千山斗姥宫,风景名胜,全年,3.6,免费,2-3小时,仙人台国家森林公园,123.099448,41.009021
鞍山市,二一九公园-城市客厅,风景名胜,全年,3.4,免费,2-3小时,园林大道二一九公园内,123.007818,41.105672
鞍山市,鞍山有轨电车遗址,风景名胜,全年,3.4,免费,2-3小时,绿化街45-5号楼,123.012939,41.097668
鞍山市,烈士山公园-山湖广场,风景名胜,全年,3.4,免费,2-3小时,烈士山公园(东北角),122.993679,41.102066
鞍山市,张中堡综合文化广场,风景名胜,全年,3.6,免费,2-3小时,310县道张中堡综合文化广场附近,122.845402,41.085085
鞍山市,老虎屯基督教堂,风景名胜,全年,3.8,免费,2-3小时,老虎山野生动物园旁,122.892644,41.054416
鞍山市,大屯基督教堂,风景名胜,全年,3.7,免费,2-3小时,海华路36号楼铭祎幼儿园路西,122.914062,40.992545
抚顺市,抚顺战犯管理所,风景名胜,全年,4.7,免费,2-3小时,抚顺城街道宁远街43号,123.907366,41.883562
抚顺市,抚顺人民广场,风景名胜,全年,4.2,免费,2-3小时,临江路(东段)与长城街交叉口西南240米,123.957374,41.878477
抚顺市,新屯公园,风景名胜,全年,4.2,免费,2-3小时,莫地北路,123.969413,41.835623
抚顺市,萨尔浒风景名胜区,风景名胜,全年,4.6,免费,2-3小时,萨尔浒南路6号,124.100251,41.846671
抚顺市,抚顺平顶山惨案纪念馆,风景名胜,全年,4.7,免费,2-3小时,南昌路13号,123.926506,41.834229
抚顺市,健娱乐全民健身广场,风景名胜,全年,4.1,免费,2-3小时,榆林花鸟鱼市场东侧约140米,123.944303,41.869039
抚顺市,雷锋纪念馆,风景名胜,全年,4.4,免费,2-3小时,雷锋路东段61号,123.801895,41.850140
抚顺市,劳动公园动物园,风景名胜,全年,4.2,免费,2-3小时,东公园街道永宁街9号,123.925616,41.866201
抚顺市,月牙岛生态公园,风景名胜,全年,4.7,免费,2-3小时,沿滨路北100米,123.839785,41.860165
抚顺市,东林里,风景名胜,全年,4.2,免费,2-3小时,东林路劳动公园南门对面东林园,123.929200,41.864032
抚顺市,皇家海洋乐园,风景名胜,全年,4.7,免费,2-3小时,沈抚示范区高湾经济开发区高阳路3号,123.742983,41.866405
抚顺市,中华寺风景区,风景名胜,全年,4.4,免费,2-3小时,140省道附近,123.786125,41.768586
抚顺市,抚顺西露天参观台,风景名胜,全年,4.4,免费,2-3小时,古城子街1路1号,123.858640,41.836468
抚顺市,十里滨水公园,风景名胜,全年,4.1,免费,2-3小时,河畔嘉园附近十里,123.949839,41.876020
抚顺市,抚顺新抚清真寺,风景名胜,全年,4.3,免费,2-3小时,福民路,123.887973,41.863622
抚顺市,三慧寺,风景名胜,全年,4.3,免费,2-3小时,萨尔浒南路6号萨尔浒风景名胜区(东北角),124.106446,41.858492
抚顺市,东北记忆工业主题公园,风景名胜,全年,4.1,免费,2-3小时,海新路,123.975258,41.871644
抚顺市,金风湾,风景名胜,全年,4.1,免费,2-3小时,沈抚大道旺力城对面,123.690428,41.820357
抚顺市,生命之环,风景名胜,全年,4.7,免费,2-3小时,中兴街77-46号,123.688956,41.822407
抚顺市,莫地广场,风景名胜,全年,4.1,免费,2-3小时,新屯街道莫地北路莫地社区内,123.972214,41.830645
抚顺市,善缘寺,风景名胜,全年,4.3,免费,2-3小时,宝上线,123.728055,41.946794
抚顺市,抚顺红枫林景区,风景名胜,全年,4.1,免费,2-3小时,章党章汉村,124.062284,41.903266
抚顺市,皇家极地海洋世界,风景名胜,全年,4.4,免费,2-3小时,李石街道高湾经济区高阳路3号皇家海洋乐园内(西侧),123.740973,41.867006
抚顺市,承光寺,风景名胜,全年,3.9,免费,2-3小时,寒江路3附近,123.918018,41.895564
抚顺市,儿童公园,风景名胜,全年,4.0,免费,2-3小时,东三路与自由路交叉口东100米,123.912657,41.865999
抚顺市,抚顺南站城市会客厅,风景名胜,全年,4.1,免费,2-3小时,西一路与中央大街交叉口西北60米,123.902003,41.863429
抚顺市,露天矿公园(不对外开放),风景名胜,全年,4.1,免费,2-3小时,兴平路附近,123.891015,41.844871
抚顺市,抚顺市高尔山观音阁,风景名胜,全年,4.0,免费,2-3小时,高山路72号,123.907812,41.889878
抚顺市,皇顶山森林公园,风景名胜,全年,4.1,免费,2-3小时,会元乡上砖台村东,123.931865,42.012955
抚顺市,抚顺市高山路天主教堂,风景名胜,全年,3.8,免费,2-3小时,施南路21号,123.944369,41.897044
抚顺市,基督教堂,政府机构及社会团体,全年,4.0,免费,2-3小时,中和路,123.888393,41.862632
抚顺市,高尔山景区神树,风景名胜,全年,4.0,免费,2-3小时,G1212沈吉高速附近,123.880846,41.910450
抚顺市,青莲寺,风景名胜,全年,4.1,免费,2-3小时,虎东一街,123.952452,41.835555
抚顺市,关山湖风景区,风景名胜,全年,4.2,免费,2-3小时,救兵镇关山村,124.030186,41.694562
抚顺市,秋水长天,风景名胜,全年,4.1,免费,2-3小时,萨尔浒南路6号萨尔浒风景名胜区,124.129473,41.853893
抚顺市,河滩公园广场,风景名胜,全年,4.0,免费,2-3小时,华扬建设浑河逸境项目部,124.032440,41.868519
抚顺市,玉清宫讲经堂,风景名胜,全年,4.2,免费,2-3小时,西五路7-1号,123.893978,41.857257
抚顺市,高尔山辽塔,风景名胜,全年,3.8,免费,2-3小时,高山路高尔山公园内,123.907567,41.890575
抚顺市,海城小世界公园,风景名胜,全年,4.1,免费,2-3小时,[],123.817412,41.855413
抚顺市,二道基督教活动点,风景名胜,全年,3.9,免费,2-3小时,裕城路27号,123.953820,41.887407
抚顺市,抚顺市河东基督教堂,风景名胜,全年,3.8,免费,2-3小时,滴翠路11号,123.936267,41.877070
抚顺市,虎台基督教堂,风景名胜,全年,3.8,免费,2-3小时,虎西路13-3号楼,123.941453,41.841976
抚顺市,三元观,风景名胜,全年,4.3,免费,2-3小时,翔宇路与金凤街交叉口东100米,123.686638,41.827892
抚顺市,新屯公园-福慧寺,风景名胜,全年,3.9,免费,2-3小时,煤都路西段28号楼,123.974659,41.836886
抚顺市,社河国家湿地公园,风景名胜,全年,4.2,免费,2-3小时,抚金线与台上线交叉口西北120米,124.143506,41.791407
抚顺市,梨花谷,风景名胜,全年,4.1,免费,2-3小时,石文镇G91(辽中环线高速),123.967112,41.706030
抚顺市,高尔山·天边,风景名胜,全年,3.8,免费,2-3小时,将军北街23号,123.893157,41.897345
抚顺市,富平路天主教堂,风景名胜,全年,3.8,免费,2-3小时,西富平路5号,123.903093,41.854886
抚顺市,清太祖努尔哈赤,风景名胜,全年,4.1,免费,2-3小时,萨尔浒南路6号萨尔浒风景名胜区,124.122665,41.856546
抚顺市,仙人洞,风景名胜,全年,4.0,免费,2-3小时,479乡道,123.827177,42.001945
抚顺市,上寺风景区,风景名胜,全年,3.9,免费,2-3小时,河北乡,123.797325,41.934885
抚顺市,刘山广场,风景名胜,全年,3.9,免费,2-3小时,刘山一街与刘山二街交叉口东南160米,123.897816,41.827887
抚顺市,北站基督教堂,风景名胜,全年,3.9,免费,2-3小时,抚顺城路15-4号,123.927462,41.887754
抚顺市,抚顺市望花区朝阳基督教堂,风景名胜,全年,4.1,免费,2-3小时,朝阳路7号,123.800459,41.846212
抚顺市,抚顺市滨水公园,风景名胜,全年,3.9,免费,2-3小时,浑河北路24号,123.906367,41.872595
抚顺市,玉露潭公园,风景名胜,全年,4.1,免费,2-3小时,李石开发区,123.697521,41.811850
抚顺市,虎台公园,风景名胜,全年,3.9,免费,2-3小时,老虎台街道虎东一街虎台山公园,123.956033,41.844224
抚顺市,西戈公园,风景名胜,全年,3.8,免费,2-3小时,西葛一路抚顺石化西葛小区,123.849924,41.867044
抚顺市,萨尔浒山之战书事碑亭,风景名胜,全年,4.0,免费,2-3小时,萨尔浒南路6号萨尔浒风景名胜区,124.130991,41.859767
抚顺市,千台山公园,风景名胜,全年,3.8,免费,2-3小时,千台山社区58号楼,123.871444,41.833928
抚顺市,高尔山风景区将军峰,风景名胜,全年,3.7,免费,2-3小时,会元乡高山路97号高尔山风景区,123.903349,41.898240
抚顺市,李石河西公园,风景名胜,全年,4.1,免费,2-3小时,李石街与顺发路交叉口西北120米,123.733889,41.822691
抚顺市,月牙岛生态公园喷泉,风景名胜,全年,4.1,免费,2-3小时,沿滨路月牙岛生态公园内(东侧),123.842575,41.859900
抚顺市,元帅林,风景名胜,全年,4.1,免费,2-3小时,章党镇高丽村,124.294709,41.934906
抚顺市,抚顺市顺城区基督教将军聚会点,风景名胜,全年,3.8,免费,2-3小时,柳河街15号,123.900852,41.876710
抚顺市,抚顺石油一厂遗址,风景名胜,全年,3.9,免费,2-3小时,千金路与八道街交叉口南320米,123.877377,41.855662
抚顺市,邀月亭,风景名胜,全年,3.9,免费,2-3小时,萨尔浒风景名胜区,124.130752,41.861992
抚顺市,辽宁大伙房国家湿地公园(不对外开放),风景名胜,全年,4.0,免费,2-3小时,大伙房水库,124.313114,41.911532
抚顺市,抚顺市田屯莲花寺,风景名胜,全年,3.9,免费,2-3小时,李石街道沈东七路抚顺市田屯莲花寺,123.756822,41.806230
抚顺市,基督教堂(福民路),风景名胜,全年,4.0,免费,2-3小时,福民路37号,123.873106,41.861139
抚顺市,宝泉山,风景名胜,全年,3.9,免费,2-3小时,友爱村,123.731539,41.945984
抚顺市,高尔山山城,风景名胜,全年,3.8,免费,2-3小时,会元乡高山路97号高尔山风景区内(西侧),123.897843,41.894450
抚顺市,采沉记忆实景公园,风景名胜,全年,3.8,免费,2-3小时,青年路中公交站旁,123.982943,41.866954
抚顺市,观复六如,风景名胜,全年,4.4,免费,2-3小时,略阳街2号附近,123.941461,41.871954
抚顺市,东公园基督教堂,风景名胜,全年,3.7,免费,2-3小时,礼泉路10号,123.935039,41.869962
抚顺市,好汉坡,风景名胜,全年,3.8,免费,2-3小时,皇顶山森林公园,123.930355,42.010880
抚顺市,玫瑰广场,风景名胜,全年,3.9,免费,2-3小时,新民二路10号,123.803187,41.861397
抚顺市,山水驿生态广场,风景名胜,全年,4.2,免费,2-3小时,抚金线,124.142851,41.790493
抚顺市,复古列车博物馆,风景名胜,全年,4.1,免费,2-3小时,海洋路与扬帆街交叉口西北460米,123.742252,41.871746
抚顺市,抚顺市东洲区青年路花海景点,风景名胜,全年,3.8,免费,2-3小时,青年路(西段)与海新路交叉口西南400米,123.980548,41.862765
抚顺市,长安广场,风景名胜,全年,3.7,免费,2-3小时,虎东路与虎万路交叉口西南80米,123.954172,41.840677
抚顺市,毛主席雕像,风景名胜,全年,3.8,免费,2-3小时,东七路与民主二街交叉口东40米,123.907296,41.860806
抚顺市,萨尔浒花海,风景名胜,全年,3.9,免费,2-3小时,萨尔浒南路6号萨尔浒风景名胜区(东北角),124.110790,41.853684
抚顺市,人民烈士纪念碑,风景名胜,全年,3.6,免费,2-3小时,北台一街与北台三路交叉口西120米,123.913211,41.866287
抚顺市,雁鸣湖,风景名胜,全年,4.0,免费,2-3小时,宝泉山附近,123.755149,41.940817
抚顺市,黄旗村明代土城子遗址,风景名胜,全年,3.8,免费,2-3小时,[],123.931696,41.927137
抚顺市,天瀑泉,风景名胜,全年,3.8,免费,2-3小时,逍遥城(煤都路北),123.962618,41.844852
抚顺市,鱼市小广场,风景名胜,全年,3.9,免费,2-3小时,红光社区,123.809876,41.851093
抚顺市,腈纶公园,风景名胜,全年,3.8,免费,2-3小时,绥阳路(巴米罗发型设计附近),124.050003,41.868319
抚顺市,基督教堂(南阳路),风景名胜,全年,3.7,免费,2-3小时,永宁街与南阳路交叉口东南40米,123.926549,41.854838
抚顺市,前甸新村基督教活动点,风景名胜,全年,3.4,免费,2-3小时,颐城街6-20号,123.988112,41.890178
抚顺市,一竹牧场家畜动物园,风景名胜,全年,4.3,免费,2-3小时,安康街10委3组1号,123.978780,41.864877
抚顺市,抚顺市劳动公园,风景名胜,全年,4.6,免费,2-3小时,东公园街道凤翔路,123.925236,41.867178
抚顺市,高尔山风景区,风景名胜,全年,4.6,免费,2-3小时,会元乡高山路97号,123.903843,41.895430
抚顺市,东岗观景台,风景名胜,全年,4.6,免费,2-3小时,南阳路4-38号楼,123.926644,41.849110
抚顺市,东林公园,风景名胜,全年,4.1,免费,2-3小时,榆林街道东林一街3号,123.930769,41.862810
抚顺市,紫花岭风景区,风景名胜,全年,4.0,免费,2-3小时,兰山乡紫花村金洋线,124.138992,41.731348
抚顺市,青龙寺,风景名胜,全年,4.3,免费,2-3小时,后安镇郑家村,124.282490,41.689032
抚顺市,新时代广场(煤都路),风景名胜,全年,3.8,免费,2-3小时,搭连路2号,124.035173,41.852625
抚顺市,杲城烟雨,风景名胜,全年,3.8,免费,2-3小时,萨尔浒南路6号萨尔浒风景名胜区,124.132622,41.860451
抚顺市,三块石国家森林公园,风景名胜,全年,4.6,免费,2-3小时,后安镇佟庄子村,124.392340,41.657967
抚顺市,沈抚滨河公园,风景名胜,全年,4.0,免费,2-3小时,滨河路3号,123.704085,41.840268
抚顺市,基督教李石河西堂,风景名胜,全年,3.9,免费,2-3小时,李石街与顺发路交叉口北40米,123.732493,41.823243
抚顺市,凌云寺,风景名胜,全年,3.9,免费,2-3小时,456乡道西50米,124.091334,41.955057
抚顺市,城隍庙,风景名胜,全年,3.9,免费,2-3小时,李石街道沈抚新城高湾经济开发区高望路1号热高乐园丛林欢乐世界内,123.739920,41.876246
抚顺市,杨靖宇烈士,风景名胜,全年,0.0,免费,2-3小时,浑河南路(中段)与宁远街交叉口东北80米,123.916466,41.871074
抚顺市,天女山森林公园,风景名胜,全年,4.4,免费,2-3小时,401县道东50米,124.350483,41.580168
抚顺市,霜叶园,风景名胜,全年,3.8,免费,2-3小时,七道街与浑河南路中段交叉口北480米,123.876135,41.867211
抚顺市,兴国寺,风景名胜,全年,3.9,免费,2-3小时,[],123.832377,41.630233
抚顺市,远洋城山顶公园,风景名胜,全年,3.7,免费,2-3小时,远洋城山顶公园(将军北街东),123.892487,41.888508
抚顺市,中兴街基督教活动点,风景名胜,全年,3.8,免费,2-3小时,中兴街与腾远路交叉口东南100米,123.690265,41.832889
抚顺市,高尔山公园蝴蝶泉,风景名胜,全年,3.7,免费,2-3小时,会元乡高山路97号高尔山风景区,123.901369,41.895344
抚顺市,大龙湾,风景名胜,全年,4.3,免费,2-3小时,上徐线东南侧,124.479435,41.818457
抚顺市,神松,风景名胜,全年,3.7,免费,2-3小时,[],123.935583,42.007651
抚顺市,西丰园,风景名胜,全年,3.8,免费,2-3小时,工农街道沈抚公路八纬路小学南,123.780946,41.851763
抚顺市,关口基督教活动点,风景名胜,全年,3.7,免费,2-3小时,金洋线与抚金线交叉口南200米,124.076983,41.835666
抚顺市,雷锋广场,风景名胜,全年,3.9,免费,2-3小时,丹东路西段1号辽宁石油化工大学,123.790780,41.858524
抚顺市,福禄宫,风景名胜,全年,3.8,免费,2-3小时,新屯街30-49号楼附近,123.969154,41.827940
抚顺市,市民广场,风景名胜,全年,3.8,免费,2-3小时,高湾高阳路鑫禹小区3号楼,123.774027,41.869870
抚顺市,双泉寺,风景名胜,全年,3.6,免费,2-3小时,萨尔浒酒厂东南侧80米,124.024340,41.773812
抚顺市,抚顺皇家极地海洋世界-世纪丛林,风景名胜,全年,3.9,免费,2-3小时,皇家极地海洋世界,123.741345,41.867043
抚顺市,海林禅寺,风景名胜,全年,3.8,免费,2-3小时,后安镇同安村,124.238752,41.722940
抚顺市,抚顺花懿枫玺风景区,风景名胜,全年,3.6,免费,2-3小时,章党街道詹白线,124.061918,41.900629
抚顺市,碳矿俱乐部旧址,风景名胜,全年,3.4,免费,2-3小时,站前街道迎宾街1号,123.912357,41.863700
抚顺市,施家基督教活动点,风景名胜,全年,3.3,免费,2-3小时,双阳北路17号楼西侧,123.946840,41.899905
抚顺市,顺城区烈士陵园,生活服务,全年,0.0,免费,2-3小时,河北乡莲岛村南岭,123.786543,41.910782
抚顺市,沈阳工学院船钉纪念馆,风景名胜,全年,3.8,免费,2-3小时,沈阳工学院卓越馆,123.717977,41.841824
抚顺市,顺飞广场,风景名胜,全年,3.6,免费,2-3小时,顺飞路与顺大街交叉口南40米,123.719689,41.816477
抚顺市,抚顺解放纪念碑,风景名胜,全年,3.5,免费,2-3小时,永宁街与东一路交叉口东北160米,123.918057,41.870479
抚顺市,池涌泉,风景名胜,全年,3.2,免费,2-3小时,乾安街与新华一路交叉口北100米,123.921880,41.880641
抚顺市,通天阁,风景名胜,全年,3.2,免费,2-3小时,丹东路与海城街交叉口西80米,123.824536,41.852946
抚顺市,朝阳寺,风景名胜,全年,3.7,免费,2-3小时,救兵镇马郡村,124.070266,41.653188
抚顺市,南万新口袋公园,风景名胜,全年,3.4,免费,2-3小时,万新街万新派出所西北侧,123.959206,41.838887
抚顺市,抚顺矿务局职工殉职烈士塔,风景名胜,全年,3.6,免费,2-3小时,北台二路2500号楼,123.921719,41.868128
抚顺市,盘古天地,风景名胜,全年,4.0,免费,2-3小时,翔宇路与金凤街交叉口东南180米,123.687129,41.826947
抚顺市,蓝月湾广场,风景名胜,全年,3.5,免费,2-3小时,永济路48号,123.840858,41.859262
抚顺市,公园七路15,风景名胜,全年,3.3,免费,2-3小时,公园七路与公园四街交叉口西北20米,123.931835,41.869540
抚顺市,健身广场,风景名胜,全年,3.5,免费,2-3小时,昌图街与营口路交叉口北140米,123.803514,41.859175
抚顺市,石华山公园,风景名胜,全年,3.7,免费,2-3小时,德才高级中学对面,124.051390,41.862650
抚顺市,慈母多子树,风景名胜,全年,3.3,免费,2-3小时,[],123.884772,41.900421
抚顺市,秋琳广场,风景名胜,全年,3.2,免费,2-3小时,前三线与202国道交叉口西北500米,123.993700,41.902824
抚顺市,二建四家子青年点旧址,风景名胜,全年,3.6,免费,2-3小时,沈环北线,123.905747,41.945880
抚顺市,滨水游园,风景名胜,全年,3.5,免费,2-3小时,丹东路香水湾,123.826983,41.853665
抚顺市,刘山基督教,风景名胜,全年,3.7,免费,2-3小时,南花园西街104号,123.907825,41.824814
抚顺市,大伙房水库-张学良将军纪念馆,风景名胜,全年,3.7,免费,2-3小时,绥化路11号大伙房水库(不对外开放)(东北角),124.302768,41.934082
抚顺市,玄貞阁,风景名胜,全年,2.9,免费,2-3小时,新华大街7-7号楼3单元102号,123.915431,41.879366
抚顺市,长春基督教活动点,风景名胜,全年,3.5,免费,2-3小时,高山路1-11号,123.934633,41.901728
抚顺市,动物世界,风景名胜,全年,3.8,免费,2-3小时,高湾经济区高阳路3号皇家海洋乐园内(西侧),123.741493,41.866005
抚顺市,摩艾石像,风景名胜,全年,3.6,免费,2-3小时,高湾经济区高阳路3号皇家海洋乐园海神乐园内,123.746350,41.865290
抚顺市,猴石国家森林公园(暂停开放),风景名胜,全年,4.2,免费,2-3小时,木奇镇,124.495771,41.700466
抚顺市,灵仙宫,风景名胜,全年,3.5,免费,2-3小时,丹东路与灯塔路交叉口西北60米,123.818098,41.853828
抚顺市,雷锋同志之墓,风景名胜,全年,3.3,免费,2-3小时,昌图街8号,123.803495,41.850913
抚顺市,永光宝塔,风景名胜,全年,3.6,免费,2-3小时,杲山路,124.104107,41.859261
抚顺市,温道天主教堂,风景名胜,全年,3.6,免费,2-3小时,温姚线401县道,124.148481,41.771840
抚顺市,百草园,风景名胜,全年,2.9,免费,2-3小时,凤翔路与扶风街交叉口西80米,123.934317,41.871532
抚顺市,尉迟恭,风景名胜,全年,3.5,免费,2-3小时,王滨乡中华寺村中华寺景区内,123.789125,41.766918
抚顺市,前兴社区北广场,风景名胜,全年,3.3,免费,2-3小时,前甸医院西北侧160米,123.991793,41.900004
抚顺市,顺城区葛布街道新地红色主题广场,风景名胜,全年,3.5,免费,2-3小时,东葛三路与葛布东街交叉口东北60米,123.866559,41.875351
抚顺市,基督教,风景名胜,全年,3.3,免费,2-3小时,灯塔路3-5,123.817136,41.856215
抚顺市,抚顺市凌云寺念佛堂,风景名胜,全年,3.7,免费,2-3小时,章党镇上章党村,124.092255,41.955003
抚顺市,辽宁天女山森林公园-观景台,风景名胜,全年,4.2,免费,2-3小时,401县道东50米天女山森林公园,124.361954,41.579563
抚顺市,王杲山,风景名胜,全年,3.4,免费,2-3小时,萨尔浒南路6号,124.108426,41.858586
抚顺市,新宾满族自治县苏子河银龙湾,风景名胜,全年,3.9,免费,2-3小时,[],124.487826,41.817080
抚顺市,妈妈沟风景区,风景名胜,全年,3.8,免费,2-3小时,南杂木镇聂尔库村,124.472619,41.896390
抚顺市,生活广场,风景名胜,全年,3.1,免费,2-3小时,裕民路与新北街交叉口东20米,123.891341,41.861115
抚顺市,上年基督教会,风景名胜,全年,3.2,免费,2-3小时,哈三线,124.134014,42.021033
抚顺市,抚顺市东洲区上章党基督教堂,风景名胜,全年,3.3,免费,2-3小时,章党镇上汉村,124.099043,41.941875
抚顺市,道源堂,风景名胜,全年,2.9,免费,2-3小时,新城四路与新城二街交叉口西60米,123.912061,41.886641
抚顺市,上寺佛教道场,风景名胜,全年,3.6,免费,2-3小时,[],123.803494,41.931569
抚顺市,搭连基督教活动点,风景名胜,全年,3.2,免费,2-3小时,搭连三路600号楼,124.034973,41.848744
抚顺市,筐子沟(暂停开放),风景名胜,全年,4.4,免费,2-3小时,枸乃甸乡省级公路彰桓线沿线,124.824504,42.134794
抚顺市,赫图阿拉城,风景名胜,全年,4.6,免费,2-3小时,永陵镇,124.874263,41.705298
抚顺市,辽宁石油化工大学龙源广场,风景名胜,全年,3.4,免费,2-3小时,滨河路与北镇街交叉口东南200米,123.786177,41.857894
抚顺市,玄法堂,风景名胜,全年,3.4,免费,2-3小时,将军街与延吉路交叉口东南80米,123.890863,41.876329
抚顺市,抚顺市东洲区章党镇营盘基督教活动点,风景名胜,全年,3.3,免费,2-3小时,章党镇营盘村,124.215457,41.937557
抚顺市,霖叶园,风景名胜,全年,3.4,免费,2-3小时,霜叶园内(西侧),123.875064,41.867196
抚顺市,抚顺市基督教新抚聚会点,风景名胜,全年,3.4,免费,2-3小时,福民路37号,123.873442,41.861212
抚顺市,休闲广场,风景名胜,全年,3.7,免费,2-3小时,双阳路2号,123.943595,41.895655
抚顺市,星月社区民族文化广场,风景名胜,全年,3.4,免费,2-3小时,浑河南路88号,123.886978,41.864458
抚顺市,方晓基督教活动点,风景名胜,全年,3.5,免费,2-3小时,[],123.791668,41.886324
抚顺市,前腰基督教活动点,风景名胜,全年,3.5,免费,2-3小时,[],124.062805,41.678204
抚顺市,红河峡谷漂流(暂停开放),风景名胜,全年,4.8,免费,2-3小时,三十道河村双长线附近,124.902846,41.992130
抚顺市,茅台山滑草场,风景名胜,全年,3.4,免费,2-3小时,施大线,123.959112,41.989100
抚顺市,潘花坊,风景名胜,全年,3.5,免费,2-3小时,六中对面二十三中店,123.933749,41.882137
抚顺市,清风桥,风景名胜,全年,3.3,免费,2-3小时,浑河南路中段126号,123.850095,41.858853
抚顺市,玄腾阁,风景名胜,全年,3.6,免费,2-3小时,高山路94号楼6号门市1-2层,123.901299,41.887595
抚顺市,玉龙溪大峡谷风景区,风景名胜,全年,4.6,免费,2-3小时,清原镇腰站村(南长岭顶端),124.948537,42.074480
抚顺市,弥勒大佛,风景名胜,全年,3.6,免费,2-3小时,王滨乡中华寺村中华寺景区内,123.785549,41.768368
抚顺市,大门洞,风景名胜,全年,3.2,免费,2-3小时,西一路与西四街交叉口东北100米,123.894294,41.860593
抚顺市,清永陵,风景名胜,全年,4.4,免费,2-3小时,永陵镇永陵镇西北启运山脚下,124.802486,41.709969
抚顺市,天女峰,风景名胜,全年,3.9,免费,2-3小时,南极亭东侧70米,124.362957,41.572196
抚顺市,和睦国家森林公园,风景名胜,全年,4.2,免费,2-3小时,永陵镇,124.716713,41.778762
抚顺市,五老基督教活动点,风景名胜,全年,3.4,免费,2-3小时,盘南路与盘山街交叉口东北400米,123.872240,41.818387
抚顺市,站前基督教活动点,风景名胜,全年,2.7,免费,2-3小时,西一路10号楼401-402,123.899438,41.861442
抚顺市,沈东基督教,风景名胜,全年,3.2,免费,2-3小时,顺发路与李石街交叉口西240米,123.729740,41.822546
抚顺市,贤夏园,风景名胜,全年,3.6,免费,2-3小时,昌图街与锦州路交叉口东北100米,123.805480,41.846030
抚顺市,大雄宝殿,风景名胜,全年,3.0,免费,2-3小时,三慧寺,124.106171,41.858606
抚顺市,皇家极地海洋世界-古埃及,风景名胜,全年,3.1,免费,2-3小时,高湾经济区高阳路3号皇家海洋乐园动物世界,123.741010,41.866535
抚顺市,绿芳园,风景名胜,全年,3.1,免费,2-3小时,临江路西段,123.907819,41.872938
抚顺市,尹登古居,风景名胜,全年,3.7,免费,2-3小时,台上线,124.409392,41.870710
抚顺市,万家花海,风景名胜,全年,3.6,免费,2-3小时,新太河村杲山路平房,124.100444,41.866187
抚顺市,河北基督教活动点,风景名胜,全年,3.0,免费,2-3小时,抚顺城路东段15号长途客运站东侧,123.934360,41.889277
抚顺市,新时代广场(丹东路),风景名胜,全年,3.3,免费,2-3小时,昌图街23号(近丹东路),123.804128,41.853834
抚顺市,抚顺市东洲区章党镇邱家基督教活动点,风景名胜,全年,3.1,免费,2-3小时,章党镇邱家村,124.083865,41.926637
抚顺市,夏威夷沙滩水世界(暂停开放),风景名胜,全年,4.1,免费,2-3小时,高湾经济区高阳路3号皇家海洋乐园内(东侧),123.744274,41.866581
抚顺市,后葛北社区小花园,风景名胜,全年,2.5,免费,2-3小时,葛山路与葛布中街交叉口西140米,123.855995,41.873075
抚顺市,抚顺市东洲区章党西基督教堂,风景名胜,全年,3.4,免费,2-3小时,松江路12号,124.082768,41.914108
抚顺市,海洋生活馆,风景名胜,全年,3.3,免费,2-3小时,新抚路与八道街交叉口西60米,123.876086,41.859527
抚顺市,德义宅院,风景名胜,全年,3.6,免费,2-3小时,东洲区疾病预防控制中心东侧150米,124.034886,41.848626
抚顺市,南天门文化旅游风景区(暂停开放),风景名胜,全年,4.3,免费,2-3小时,大苏河乡南天门村南天门组,124.952448,41.979336
抚顺市,黑石木景区,风景名胜,全年,4.3,免费,2-3小时,北三家乡黑石木村,124.672823,42.032510
本溪市,平顶山森林公园,风景名胜,全年,4.5,免费,2-3小时,天门路西50米,123.788539,41.270811
本溪市,市府广场,风景名胜,全年,4.2,免费,2-3小时,人民路31号人大综合楼,123.765413,41.294258
本溪市,本溪湖公园,风景名胜,全年,4.3,免费,2-3小时,溪湖西路212号,123.756111,41.338967
本溪市,本溪湖工业遗产群,风景名胜,全年,4.3,免费,2-3小时,溪湖东路与大明山街交叉口西360米,123.772553,41.324130
本溪市,小市一庄,风景名胜,全年,4.7,免费,2-3小时,小市镇本桓公路同江峪水洞旁(本桓线本溪远航加油站西南150米),124.057548,41.302354
本溪市,本溪东风湖旅游度假村,风景名胜,全年,4.2,免费,2-3小时,东风街道新兴村,123.692406,41.327699
本溪市,枫叶广场,风景名胜,全年,4.2,免费,2-3小时,翠溪路与华溪路交叉口西南140米,123.800399,41.312688
本溪市,本溪水洞景区,风景名胜,全年,4.8,免费,2-3小时,谢家崴子村,124.080348,41.300153
本溪市,平顶山索道,风景名胜,全年,4.2,免费,2-3小时,平顶山庄对面,123.784001,41.283256
本溪市,凤凰山公园,风景名胜,全年,4.2,免费,2-3小时,卧龙街道,123.831836,41.330576
本溪市,平顶山森林公园(西城口),风景名胜,全年,4.1,免费,2-3小时,环山路60-2号,123.776042,41.282307
本溪市,华严寺,风景名胜,全年,4.0,免费,2-3小时,工人街道环山路125号,123.773171,41.277562
本溪市,藏龙寺,风景名胜,全年,4.1,免费,2-3小时,居仁路,123.764624,41.330661
本溪市,大冰沟国家地质森林公园,风景名胜,全年,4.7,免费,2-3小时,思山岭街道办事处南沟村三组,123.924577,41.099102
本溪市,财神寺,风景名胜,全年,4.3,免费,2-3小时,财神庙村,123.898524,41.209019
本溪市,泉泊基督教堂,风景名胜,全年,4.0,免费,2-3小时,石子街4号,123.756204,41.271127
本溪市,清真寺,风景名胜,全年,3.9,免费,2-3小时,兴工街清真寺(和谐佳园南)附近,123.759455,41.327427
本溪市,卧龙岩溶小峡谷景区,风景名胜,全年,4.2,免费,2-3小时,544乡道,123.961076,41.294994
本溪市,本溪清真寺,风景名胜,全年,4.1,免费,2-3小时,明山路东北40米,123.775643,41.315550
本溪市,本钢一铁厂纪念,风景名胜,全年,4.1,免费,2-3小时,溪湖东路1151栋,123.778593,41.321500
本溪市,温泉寺,风景名胜,全年,4.4,免费,2-3小时,观音阁街道本同线,124.051832,41.341329
本溪市,天著大悦泉欢乐温泉,风景名胜,全年,4.3,免费,2-3小时,翠微路山麓组团36号楼,124.052563,41.338774
本溪市,本溪水塔,风景名胜,全年,3.8,免费,2-3小时,水塔路与矿院街交叉口西北120米,123.776121,41.302427
本溪市,革命烈士纪念碑,风景名胜,全年,3.7,免费,2-3小时,望溪公园,123.769131,41.289754
本溪市,平顶山森林公园-青云关,风景名胜,全年,3.7,免费,2-3小时,天门路平顶山森林公园内(西侧),123.780833,41.273685
本溪市,静云园,风景名胜,全年,3.8,免费,2-3小时,转山新家源小区,123.767496,41.279895
本溪市,实华·新时代广场,风景名胜,全年,3.3,免费,2-3小时,胜利路3-5号附近,123.763139,41.297815
本溪市,玉皇庙,风景名胜,全年,3.9,免费,2-3小时,平顶山森林公园,123.786484,41.271727
本溪市,本溪小天池,风景名胜,全年,4.1,免费,2-3小时,[],123.657407,41.239866
本溪市,滴水洞自然保护区,风景名胜,全年,3.9,免费,2-3小时,青云山风景区,123.821179,41.225237
本溪市,本溪卧龙基督教堂,风景名胜,全年,3.9,免费,2-3小时,本桓高速出口与本桓高速交叉口东200米,123.852863,41.324010
本溪市,观音山公园,风景名胜,全年,4.2,免费,2-3小时,西山路,124.111139,41.307228
本溪市,四方古寨,风景名胜,全年,4.0,免费,2-3小时,青云山风景区,123.801129,41.252241
本溪市,玉龙山公园,风景名胜,全年,4.1,免费,2-3小时,仙榆路附近,123.703048,41.434718
本溪市,牛毛岭景区国家地质公园,风景名胜,全年,3.7,免费,2-3小时,柳彩线附近,123.725568,41.344274
本溪市,关门山国家森林公园,风景名胜,全年,4.7,免费,2-3小时,小市镇关山湖,124.187713,41.129147
本溪市,龙门寺,风景名胜,全年,3.9,免费,2-3小时,滨河北路与翠溪路交叉口北300米,123.790144,41.320174
本溪市,南芬音乐公路,风景名胜,全年,4.2,免费,2-3小时,下深线东南侧,123.754285,41.069773
本溪市,基督教堂,风景名胜,全年,3.9,免费,2-3小时,郑家路,123.726505,41.306602
本溪市,本溪市天主教堂,风景名胜,全年,3.7,免费,2-3小时,彩南街13-2号附近,123.715610,41.318690
本溪市,高峪山公园-百合门,风景名胜,全年,3.9,免费,2-3小时,百合新城(合峪街北),123.799041,41.298523
本溪市,天龙古洞风景区,风景名胜,全年,4.3,免费,2-3小时,小城镇乡香磨村,124.124136,41.274542
本溪市,金山公园,风景名胜,全年,3.7,免费,2-3小时,紫金北街1号,123.782743,41.300004
本溪市,平顶山碉堡群,风景名胜,全年,3.8,免费,2-3小时,天门路平顶山森林公园,123.783195,41.273843
本溪市,东北抗联史实陈列馆,风景名胜,全年,4.0,免费,2-3小时,滨河东路100号,124.135141,41.288347
本溪市,平顶山森林公园-北门人行门,风景名胜,全年,3.7,免费,2-3小时,环山路,123.783837,41.283067
本溪市,本溪烈士纪念馆,风景名胜,全年,3.9,免费,2-3小时,水洞路(青松岭),123.835162,41.324554
本溪市,本溪环城国家森林公园,风景名胜,全年,3.8,免费,2-3小时,[],123.789811,41.274096
本溪市,北沙河湿地公园,风景名胜,全年,4.2,免费,2-3小时,枫叶路200号,123.698308,41.489308
本溪市,慈航寺,风景名胜,全年,3.9,免费,2-3小时,柳塘路7-1号,123.755580,41.339087
本溪市,安居广场,风景名胜,全年,3.9,免费,2-3小时,新欣街32-4号附近,123.768290,41.279224
本溪市,大峪基督教堂,风景名胜,全年,3.7,免费,2-3小时,育龙路与华夏街交叉口东80米,123.820034,41.298199
本溪市,本溪湖景区国家地质公园,风景名胜,全年,3.7,免费,2-3小时,河西街道溪湖西路路208号本溪湖景区,123.756788,41.336019
本溪市,钓鱼台玉龙观,风景名胜,全年,4.0,免费,2-3小时,钓鱼台,123.719191,41.154667
本溪市,东芬广场,风景名胜,全年,3.5,免费,2-3小时,解放北路东芬转盘路口附近,123.772542,41.312229
本溪市,平顶山森林公园-万佛窟景点,风景名胜,全年,3.6,免费,2-3小时,天门路平顶山森林公园内,123.783576,41.273367
本溪市,万市大集,风景名胜,全年,3.6,免费,2-3小时,万达广场(本溪店),123.780441,41.289761
本溪市,康溪公园,风景名胜,全年,3.9,免费,2-3小时,仙东路,123.703441,41.441827
本溪市,日俄战争遗址,风景名胜,全年,3.8,免费,2-3小时,天门路116号1,123.786100,41.271793
本溪市,本溪水洞-乘船处,风景名胜,全年,4.1,免费,2-3小时,本溪水洞乘船处(本溪水洞风景区),124.077997,41.299020
本溪市,本溪湖肉丘坟,风景名胜,全年,3.6,免费,2-3小时,琪星超市南侧230米,123.754331,41.327127
本溪市,本溪玻璃栈道,风景名胜,全年,4.0,免费,2-3小时,本溪大峡谷内(西侧),123.682669,41.142950
本溪市,观音阁水库风景区(不对外开放),风景名胜,全年,4.1,免费,2-3小时,观音阁街道观音阁水库路,124.161472,41.325313
本溪市,中国冒险公园,风景名胜,全年,4.0,免费,2-3小时,解放村,123.706780,41.139862
本溪市,大浓湖荷花池,风景名胜,全年,4.1,免费,2-3小时,544乡道东50米,123.949886,41.303848
本溪市,欧洲城-巴黎印象马德里广场,风景名胜,全年,3.8,免费,2-3小时,地工路与育民街交叉口东北160米,123.790514,41.298387
本溪市,辽东第一寒泉,风景名胜,全年,4.3,免费,2-3小时,小水洞沟西南侧,124.052011,41.079949
本溪市,观音庙,风景名胜,全年,4.1,免费,2-3小时,观音山公园,124.111476,41.306186
本溪市,本溪水洞景区-硅化木王国,风景名胜,全年,4.1,免费,2-3小时,小市镇谢家崴子村本溪水洞内,124.086721,41.303793
本溪市,本溪湖工业遗产-鹤友俱乐部,风景名胜,全年,3.8,免费,2-3小时,河东街道东山一道11-1楼,123.773353,41.329024
本溪市,丽园休闲广场,风景名胜,全年,3.6,免费,2-3小时,胜利路25号,123.765953,41.299116
本溪市,矿山公园,风景名胜,全年,4.0,免费,2-3小时,歪头山铁矿邮政支局(沈本产业大道),123.652926,41.496308
本溪市,枫叶观赏区,风景名胜,全年,4.2,免费,2-3小时,关门山国家森林公园内(西侧),124.163421,41.131917
本溪市,财富广场,风景名胜,全年,4.0,免费,2-3小时,长江路396号,124.128477,41.301718
本溪市,大仓喜八郎遗发冢,风景名胜,全年,3.9,免费,2-3小时,城中山,123.770159,41.330855
本溪市,肖家河,风景名胜,全年,3.9,免费,2-3小时,[],123.916550,41.446037
本溪市,南芬露天矿万人坑纪念碑,风景名胜,全年,3.8,免费,2-3小时,丹阜高速,123.740041,41.100628
本溪市,华夏公园,风景名胜,全年,3.5,免费,2-3小时,丹阜高速,123.812099,41.303962
本溪市,红景花海红叶谷,风景名胜,全年,4.0,免费,2-3小时,小市镇山城子村五组,124.165329,41.228923
本溪市,本溪市园林管理处望溪公园,风景名胜,全年,3.2,免费,2-3小时,人民路与铁路街交叉口东200米,123.768046,41.292133
本溪市,九鼎铁刹山风景区,风景名胜,全年,4.8,免费,2-3小时,田师付镇铁刹山村4组35号1-1,124.332765,41.292268
本溪市,极乐寺,风景名胜,全年,3.8,免费,2-3小时,560乡道旁边,123.793837,41.424906
本溪市,龙泉寺,风景名胜,全年,3.9,免费,2-3小时,溪湖区国道1113号,123.747336,41.455593
本溪市,本溪安奉铁路旧址,风景名胜,全年,3.7,免费,2-3小时,溪湖东路105号,123.777921,41.323347
本溪市,玄元宫,风景名胜,全年,3.9,免费,2-3小时,小清线,124.096897,41.354461
本溪市,望溪公园,风景名胜,全年,4.2,免费,2-3小时,人民路,123.769305,41.291030
本溪市,本溪市动植物园(暂停开放),风景名胜,全年,4.3,免费,2-3小时,宾馆路平顶山西北麓,123.787249,41.282366
本溪市,本溪市青云山风景区(暂停开放),风景名胜,全年,4.4,免费,2-3小时,高速公路南口四方台,123.801455,41.253270
本溪市,本溪大峡谷(暂停开放),风景名胜,全年,4.7,免费,2-3小时,思山岭街道解放村本溪大峡谷内,123.690965,41.140904
本溪市,高峪山公园,风景名胜,全年,4.0,免费,2-3小时,高峪百合新城,123.795603,41.300005
本溪市,小华山公园,风景名胜,全年,4.1,免费,2-3小时,阳光花园1号楼,123.790763,41.311781
本溪市,辽宁本溪国家地质公园,风景名胜,全年,4.1,免费,2-3小时,小市镇谢家崴子村本溪水洞风景区内,124.083800,41.300711
本溪市,怪石洞(暂停开放),风景名胜,全年,4.0,免费,2-3小时,河西街道东亿-瑞馨佳园24号楼1层3号门市正西方向160米,123.756660,41.336005
本溪市,文化广场,风景名胜,全年,3.9,免费,2-3小时,人民路25号,123.765649,41.297226
本溪市,建设广场,风景名胜,全年,3.4,免费,2-3小时,樱花街1号华联超市(生活广场店),123.819068,41.310479
本溪市,本溪关山湖景区(暂停开放),风景名胜,全年,4.8,免费,2-3小时,小市镇陈英村,124.146044,41.133747
本溪市,治沉广场,风景名胜,全年,3.7,免费,2-3小时,彩兴街16号,123.745083,41.301859
本溪市,关门山生态大峡谷(暂停开放),风景名胜,全年,4.3,免费,2-3小时,小市镇关门山森林公园上行1公里处,124.127713,41.143429
本溪市,西山体育公园(暂停开放),风景名胜,全年,3.9,免费,2-3小时,中心路145-6栋,123.742958,41.101849
本溪市,王姑祠,风景名胜,全年,4.0,免费,2-3小时,小右线,124.153483,41.333351
本溪市,怡然亭,风景名胜,全年,3.5,免费,2-3小时,平顶山森林公园(西北角),123.778782,41.277227
本溪市,本溪汤沟绿石谷国家森林公园(暂停开放),风景名胜,全年,4.6,免费,2-3小时,胡汤线与569乡道交叉口东,124.218661,41.072547
本溪市,松泉寺,风景名胜,全年,3.9,免费,2-3小时,高官镇304省道,124.042644,41.367246
本溪市,枫香谷温泉,风景名胜,全年,4.1,免费,2-3小时,小市镇陈英村,124.153146,41.154631
本溪市,硅化木园,风景名胜,全年,3.9,免费,2-3小时,谢家崴子村本溪水洞风景区硅化木王国内,124.086869,41.302803
本溪市,武山游园,风景名胜,全年,3.7,免费,2-3小时,矿院街30号,123.780703,41.302672
本溪市,心海澄明,风景名胜,全年,3.8,免费,2-3小时,本石线,123.821806,41.367063
本溪市,本溪煤矿中央大斜井,风景名胜,全年,3.6,免费,2-3小时,南山街与兴工街交叉口西120米,123.760253,41.327565
本溪市,百花园,风景名胜,全年,3.6,免费,2-3小时,人民路望溪公园,123.767003,41.290699
本溪市,天著33号楼私汤温泉民宿(本溪县温泉寺店),风景名胜,全年,3.7,免费,2-3小时,水岸家园西南侧260米,124.054936,41.342536
本溪市,白马寺景区,风景名胜,全年,3.8,免费,2-3小时,程家村,123.789825,41.038140
本溪市,火神寺,风景名胜,全年,3.7,免费,2-3小时,红脸村,123.933454,41.343021
本溪市,庙后山遗址,风景名胜,全年,3.9,免费,2-3小时,庙后山南坡,124.134630,41.232803
本溪市,龙王庙,风景名胜,全年,4.0,免费,2-3小时,迎水寺大桥北侧,124.055042,41.318007
本溪市,青年园,风景名胜,全年,3.5,免费,2-3小时,明山路133号,123.789237,41.312339
本溪市,杨府,风景名胜,全年,3.4,免费,2-3小时,平山路31号正东方向140米建工集贸商场,123.769948,41.286243
本溪市,铁刹山黑妈妈,风景名胜,全年,4.4,免费,2-3小时,铁刹山森林公园,124.343685,41.291582
本溪市,峪龙公园,风景名胜,全年,3.6,免费,2-3小时,程家街与育龙路交叉口北120米,123.832285,41.309966
本溪市,沈阳药科大学药用植物园,风景名胜,全年,3.7,免费,2-3小时,华佗大街121号,123.692247,41.455519
本溪市,枫王,风景名胜,全年,4.0,免费,2-3小时,小市镇关山湖关门山国家森林公园,124.186674,41.121427
本溪市,老洞庙(暂停开放),风景名胜,全年,3.7,免费,2-3小时,集本线北侧,124.014029,41.264781
本溪市,枫桦园,风景名胜,全年,3.4,免费,2-3小时,明西小区13号楼4单元6-11,123.778016,41.312617
本溪市,花溪沐枫雪温泉旅游度假区,风景名胜,全年,4.2,免费,2-3小时,草河掌镇胡堡村和欣路13号,124.164595,41.065661
本溪市,中共中央东北局(本溪)办公旧址,风景名胜,全年,0.0,免费,2-3小时,河东街道铁工社区东山一道11-2楼,123.773379,41.329066
本溪市,沈阳药科大学南校区药文化交流广场,风景名胜,全年,3.5,免费,2-3小时,枫叶路与华佗大街交叉口南300米,123.702497,41.462493
本溪市,宝山游园,风景名胜,全年,3.6,免费,2-3小时,后湖二道岗大众超市,123.760776,41.337058
本溪市,文能寺,风景名胜,全年,3.4,免费,2-3小时,[],123.806292,41.236132
本溪市,玉京山生态园-观景台,风景名胜,全年,3.9,免费,2-3小时,谢家崴子村本溪水洞风景区玉京山生态园内,124.076987,41.297561
本溪市,斜坡道广场,风景名胜,全年,3.8,免费,2-3小时,小阳沟铁矿,123.979026,41.200930
本溪市,本溪关山湖风景区野人谷,风景名胜,全年,4.2,免费,2-3小时,本溪关山湖风景区内,124.168862,41.117600
本溪市,本溪水洞风景区-观景台,风景名胜,全年,3.9,免费,2-3小时,谢家崴子村本溪水洞风景区内,124.067997,41.303236
本溪市,仙女湖,风景名胜,全年,3.7,免费,2-3小时,本溪大峡谷(东北角),123.692743,41.143223
本溪市,本溪市牛心台清真寺,风景名胜,全年,3.5,免费,2-3小时,544乡道北50米,123.914806,41.347760
本溪市,本溪工会辽宁职工文化广场,风景名胜,全年,3.4,免费,2-3小时,唐家路与卫育街交叉口西40米,123.792768,41.308343
本溪市,塔峪寺,风景名胜,全年,3.6,免费,2-3小时,塔峪村程家沟,123.864302,41.466329
本溪市,背阴汀铁路断桥,风景名胜,全年,3.9,免费,2-3小时,下深线西南30米,123.734650,41.043672
本溪市,药王寺,风景名胜,全年,3.8,免费,2-3小时,575乡道,123.840734,41.508802
本溪市,老边沟风景区(暂停开放),风景名胜,全年,4.3,免费,2-3小时,[],124.530922,41.107713
本溪市,铁路转盘的投影民宿(本溪火车站店),风景名胜,全年,2.8,免费,2-3小时,铁宏巷与人民路交叉口西北40米,123.764368,41.290792
本溪市,滴水寺,风景名胜,全年,3.5,免费,2-3小时,滴水洞自然保护区内,123.821080,41.224882
本溪市,沈阳药科大学南校区校前广场,风景名胜,全年,3.4,免费,2-3小时,华佗大街26号沈阳药科大学(南校区),123.700112,41.460713
本溪市,大石湖(暂停开放),风景名胜,全年,4.7,免费,2-3小时,东营坊乡新城子村,124.480002,41.099984
本溪市,滨枫园,风景名胜,全年,2.5,免费,2-3小时,溪湖大桥万有佳园对面,123.770876,41.314543
本溪市,龙门峡景区,风景名胜,全年,3.8,免费,2-3小时,小市镇关门山国家森林公园内,124.180882,41.129915
本溪市,白石砬子,风景名胜,全年,3.7,免费,2-3小时,半王线,124.032780,41.175105
本溪市,杨靖宇纪念馆(暂停开放),风景名胜,全年,0.0,免费,2-3小时,枫述温泉酒店东北(胡汤线北),124.196579,41.081372
本溪市,迎宾广场,风景名胜,全年,3.8,免费,2-3小时,迎宾路209-2-7-1号附近,124.117577,41.298797
本溪市,响水沟生态园,风景名胜,全年,3.5,免费,2-3小时,响水沟生态园(水洞路南),124.015054,41.264548
本溪市,欢喜岭文化广场,风景名胜,全年,3.5,免费,2-3小时,欢思线,123.904776,41.285067
本溪市,本溪龙道沟(暂停开放),风景名胜,全年,4.3,免费,2-3小时,滴田线,124.355037,41.180800
本溪市,悬崖秋千,风景名胜,全年,3.5,免费,2-3小时,本溪大峡谷内(西侧),123.687548,41.140750
本溪市,本溪天著登山公园,风景名胜,全年,3.8,免费,2-3小时,温泉寺附近,124.063367,41.338496
本溪市,两渡禅寺,风景名胜,全年,3.6,免费,2-3小时,后肖家河,123.929685,41.450025
本溪市,王官冶铁遗址,风景名胜,全年,3.7,免费,2-3小时,[],123.919862,41.367199
本溪市,八角池,风景名胜,全年,2.9,免费,2-3小时,平顶山森林公园-万佛窟景点南侧170米,123.783443,41.271766
本溪市,南芬区人民广场,风景名胜,全年,3.6,免费,2-3小时,中心路,123.746621,41.101520
本溪市,仲夏广场,风景名胜,全年,3.1,免费,2-3小时,市府北街26号,123.770190,41.291460
本溪市,玄妙阁,风景名胜,全年,3.1,免费,2-3小时,北光路与解放北二路交叉口东60米,123.765320,41.306204
本溪市,峡谷枫林,风景名胜,全年,3.6,免费,2-3小时,本溪大峡谷内(西侧),123.683776,41.141107
本溪市,本溪关山湖风景区-玻璃观景平台,风景名胜,全年,3.9,免费,2-3小时,小市镇陈英村本溪关山湖景区(东南角),124.151314,41.127642
本溪市,五彩湖瀑布,风景名胜,全年,3.7,免费,2-3小时,小市镇关山湖关门山国家森林公园内(西侧),124.163373,41.131866
本溪市,溪湖人防文化广场,风景名胜,全年,3.3,免费,2-3小时,峪中三道街,123.781963,41.329050
本溪市,东北第一桥,风景名胜,全年,3.6,免费,2-3小时,郭家街道办事处解放村,123.682925,41.142668
本溪市,龙门峡景区-观光车乘降点,风景名胜,全年,3.7,免费,2-3小时,龙门峡景区内,124.174258,41.130829
本溪市,仙榆迎客,风景名胜,全年,3.7,免费,2-3小时,仙榆路5号,123.692460,41.433773
本溪市,长岭细河沿古道,风景名胜,全年,3.6,免费,2-3小时,下深线与柏南线交叉口西南260米,123.755749,41.078468
本溪市,滴财庙,风景名胜,全年,3.6,免费,2-3小时,小小线,123.952133,41.405085
本溪市,观山湖溶洞,风景名胜,全年,3.9,免费,2-3小时,小市镇陈英村本溪关山湖景区(东南角),124.149932,41.129022
本溪市,薛礼城风景区,风景名胜,全年,4.1,免费,2-3小时,草河城镇,124.129772,40.953102
本溪市,沈阳药科大学(南校区)旱喷广场,风景名胜,全年,3.6,免费,2-3小时,华佗大街26号沈阳药科大学(南校区),123.702821,41.453354
本溪市,鸣翠谷景区,风景名胜,全年,3.8,免费,2-3小时,小市镇关门山国家森林公园内(东侧),124.216852,41.124887
本溪市,洋湖沟,风景名胜,全年,4.5,免费,2-3小时,[],124.665640,41.205340
本溪市,玉京山生态园,风景名胜,全年,3.5,免费,2-3小时,谢家崴子村本溪水洞景区内(南侧),124.078025,41.294091
本溪市,洋街旧址,风景名胜,全年,3.3,免费,2-3小时,峪中一道街与民主路交叉口东南20米,123.774121,41.327860
本溪市,天缘寺,风景名胜,全年,3.7,免费,2-3小时,天缘寺(小右线南),124.153328,41.334044
本溪市,本溪关山湖景区心洞,风景名胜,全年,4.0,免费,2-3小时,本溪关山湖风景区野人谷东侧300米,124.172525,41.117922
本溪市,湖里景区,风景名胜,全年,4.3,免费,2-3小时,东营房乡,124.544922,41.177082
本溪市,观音寺,风景名胜,全年,3.8,免费,2-3小时,小市镇关山湖关门山国家森林公园内(西侧),124.155575,41.137721
本溪市,本溪水洞-休闲活动区,风景名胜,全年,3.8,免费,2-3小时,小市镇谢家崴子村本溪水洞内,124.078976,41.294693
本溪市,五峰观,风景名胜,全年,3.8,免费,2-3小时,[],123.670750,40.973691
本溪市,青云山风景区-冰雪嘉年华,风景名胜,全年,3.0,免费,2-3小时,G1113丹阜高速入口与天门路交叉口西南280米,123.800247,41.256618
本溪市,小黄山景区-主峰,风景名胜,全年,3.7,免费,2-3小时,小市镇政府路186号关门山国家森林公园(西北角),124.171590,41.137691
本溪市,大地森林公园(暂停开放),风景名胜,全年,4.4,免费,2-3小时,东营房乡,124.669220,41.149979
本溪市,本钢平东园-东二门人行门,风景名胜,全年,2.6,免费,2-3小时,前进街与平山二道街交叉口西20米,123.784676,41.288942
本溪市,初心亭,风景名胜,全年,3.5,免费,2-3小时,中兴路与中兴二路交叉口东北200米,123.661332,41.231366
本溪市,新玛特老庙,风景名胜,全年,3.5,免费,2-3小时,解放南路8b号,123.760435,41.292655
本溪市,关门山景区瀑布,风景名胜,全年,3.5,免费,2-3小时,月亮湾西侧260米,124.180722,41.123079
本溪市,后大湖,风景名胜,全年,3.8,免费,2-3小时,草河掌镇胡家堡子村,124.158908,41.066479
本溪市,辽宁本溪铁刹山景区-国家地质公园,风景名胜,全年,3.9,免费,2-3小时,田师傅镇铁刹山,124.337390,41.293399
本溪市,枫后,风景名胜,全年,3.6,免费,2-3小时,[],124.178702,41.125579
本溪市,本溪关山湖风景区-空客A320模型飞机,风景名胜,全年,3.9,免费,2-3小时,小市镇陈英村本溪关山湖景区(东南角),124.149869,41.130299
本溪市,后大湖瀑布,风景名胜,全年,4.0,免费,2-3小时,[],124.180004,41.050674
本溪市,兰河峪风景区,风景名胜,全年,4.3,免费,2-3小时,203省道附近,124.443800,41.175474
本溪市,抗联秘密交通站遗址,风景名胜,全年,3.6,免费,2-3小时,小市镇关山湖关门山国家森林公园内(西侧),124.150219,41.138328
本溪市,偶尔小憩,风景名胜,全年,3.5,免费,2-3小时,小市镇关山湖关门山国家森林公园内(西侧),124.151937,41.136487
本溪市,本溪水洞景区-古生物硅化园,风景名胜,全年,3.3,免费,2-3小时,小市镇本溪水洞景区内,124.072370,41.278540
本溪市,龙缘广场,风景名胜,全年,3.4,免费,2-3小时,540乡道与郭家南路交叉口西80米,123.761765,41.119756
本溪市,绿石谷国家森林公园-休闲区,风景名胜,全年,3.8,免费,2-3小时,汤沟绿石谷国家森林公园售票处南侧,124.208313,41.077179
丹东市,丹东之眼中国边境摩天轮公园,风景名胜,全年,4.4,免费,2-3小时,国门湾公园内,124.369399,40.020273
丹东市,鸭绿江风景名胜区,风景名胜,全年,4.8,免费,2-3小时,滨江中路,124.397586,40.122956
丹东市,鸭绿江断桥,风景名胜,全年,4.6,免费,2-3小时,江岸路0号,124.394254,40.118655
丹东市,国门湾公园,风景名胜,全年,4.2,免费,2-3小时,浪头镇鸭绿江大道,124.371125,40.017274
丹东市,抗美援朝纪念馆,风景名胜,全年,4.5,免费,2-3小时,山上街7号,124.364745,40.119074
丹东市,望龙川栈桥,风景名胜,全年,4.2,免费,2-3小时,鸭绿江大道与文庆路交汇处,124.366973,40.002523
丹东市,锦江山公园,风景名胜,全年,4.7,免费,2-3小时,山上街93号,124.375572,40.133901
丹东市,望龙川号,风景名胜,全年,4.2,免费,2-3小时,文安路999号,124.361916,39.993822
丹东市,银杏黄金大道,风景名胜,全年,4.4,免费,2-3小时,九纬路,124.384004,40.129644
丹东市,帽盔山公园,风景名胜,全年,4.2,免费,2-3小时,桃源街与国桢路交汇处东行30米,124.347052,40.094845
丹东市,集酷国门湾亲子小镇,风景名胜,全年,4.2,免费,2-3小时,鸭绿江大街113号(中朝友谊大桥下鸭绿江上游50米),124.364108,40.035489
丹东市,英雄广场,风景名胜,全年,4.1,免费,2-3小时,文澜路与银河大街交叉口西360米,124.349417,39.994843
丹东市,东江寺,风景名胜,全年,4.1,免费,2-3小时,[],124.326792,39.998383
丹东市,虎山长城,风景名胜,全年,4.7,免费,2-3小时,319省道与滨海公路交汇处东南,124.519425,40.226705
丹东市,G331国道零公里处,风景名胜,全年,4.2,免费,2-3小时,十纬路34号,124.388253,40.125609
丹东市,月亮岛广场,风景名胜,全年,4.3,免费,2-3小时,滨江中路与春五路交叉口北80米,124.364067,40.096592
丹东市,门址,风景名胜,全年,2.8,免费,2-3小时,文安路31-11-2号,124.358796,39.997718
丹东市,玉带河公园,风景名胜,全年,3.8,免费,2-3小时,金河大街104号,124.351382,40.004684
丹东市,元宝山公园,风景名胜,全年,4.2,免费,2-3小时,八道街道宝山大街72-3号,124.394065,40.146336
丹东市,鸭绿江中朝界河游船(1号观光码头),风景名胜,全年,4.3,免费,2-3小时,浪头镇滨江中路与兴一路交叉口东220米,124.393153,40.117818
丹东市,丹东中朝边境,风景名胜,全年,4.2,免费,2-3小时,虎山镇虎山长城内(东侧),124.523872,40.225533
丹东市,青年湖公园,风景名胜,全年,4.1,免费,2-3小时,临江街道青年大街83号,124.376205,40.111014
丹东市,中朝边境一步跨,风景名胜,全年,4.4,免费,2-3小时,319省道与滨海公路交叉口东南虎山长城内(东侧),124.523248,40.228173
丹东市,宗裕金汤水世界,风景名胜,全年,4.2,免费,2-3小时,学院西街宗裕城北,124.374373,40.188807
丹东市,锦江亭,风景名胜,全年,4.1,免费,2-3小时,山上街93号锦江山公园,124.376810,40.135276
丹东市,太平湖公园,风景名胜,全年,4.1,免费,2-3小时,浪东线水利小区附近(翠园社区附近),124.158433,39.881690
丹东市,丹东市杜鹃广场,风景名胜,全年,4.1,免费,2-3小时,十纬路91号,124.385586,40.128156
丹东市,丹东市抗美援朝烈士陵园,生活服务,全年,0.0,免费,2-3小时,爱民街61号,124.380624,40.137319
丹东市,菊花山公园,风景名胜,全年,4.0,免费,2-3小时,福寿路23西南方向50米,124.350532,40.110274
丹东市,双灵寺,风景名胜,全年,4.2,免费,2-3小时,304国道,124.260807,40.208000
丹东市,鸭绿江风景名胜区-观潮亭,风景名胜,全年,4.1,免费,2-3小时,滨江中路与十纬路交汇处鸭绿江公园内,124.396527,40.120904
丹东市,清真寺,风景名胜,全年,4.1,免费,2-3小时,官电街126号,124.395515,40.137104
丹东市,大桥景区,风景名胜,全年,4.0,免费,2-3小时,浪头镇滨江中路鸭绿江风景名胜区(西南角),124.394051,40.118431
丹东市,锦江山珍稀动物园,风景名胜,全年,4.1,免费,2-3小时,山上街75-12号,124.375355,40.132035
丹东市,青龙泉,风景名胜,全年,4.4,免费,2-3小时,新天地财富广场10号,124.156125,39.858528
丹东市,普济宫,风景名胜,全年,4.1,免费,2-3小时,青龙街附近,124.399496,40.145877
丹东市,江海明珠,风景名胜,全年,4.0,免费,2-3小时,红旗土房北村一组,124.158644,39.906879
丹东市,大东沟观鸟园众愿道场,风景名胜,全年,4.2,免费,2-3小时,宝华东路3号,124.107049,39.829031
丹东市,鸭绿江口国家湿地观鸟园,风景名胜,全年,4.3,免费,2-3小时,滨海公路,124.036421,39.812387
丹东市,点将台,风景名胜,全年,4.1,免费,2-3小时,龙马线,124.455615,40.201129
丹东市,丹东商埠历史海关旧址博物馆,科教文化服务,全年,3.9,免费,2-3小时,浪人街与浪港路交叉口东300米,124.347075,40.042725
丹东市,鸭绿江国家级风景名胜区-休息亭,风景名胜,全年,3.9,免费,2-3小时,滨江中路与通江街交叉口南60米,124.402822,40.131062
丹东市,鸭绿江风景名胜区-和平广场,风景名胜,全年,4.0,免费,2-3小时,滨江中路鸭绿江风景名胜区(西南角),124.395166,40.120406
丹东市,珍珠山公园,风景名胜,全年,3.9,免费,2-3小时,东楼线路东,124.422560,40.165073
丹东市,张闻天旧居,风景名胜,全年,4.0,免费,2-3小时,九纬路与十经街交叉口西北100米,124.384437,40.129289
丹东市,一步跨,风景名胜,全年,4.3,免费,2-3小时,丹集线,124.546307,40.238055
丹东市,世纪广场,风景名胜,全年,4.1,免费,2-3小时,东港市政府,124.152571,39.863215
丹东市,净土寺,风景名胜,全年,3.9,免费,2-3小时,[],124.365904,40.228813
丹东市,丹东市七道教堂,风景名胜,全年,4.0,免费,2-3小时,仁忠前路57号,124.380276,40.141774
丹东市,抗美援朝纪念馆纪念塔展区,风景名胜,全年,3.8,免费,2-3小时,山上街7号抗美援朝纪念馆,124.364836,40.118482
丹东市,灵峰禅寺,风景名胜,全年,4.0,免费,2-3小时,五龙背镇老古沟村五龙山风景区,124.336021,40.269467
丹东市,木都广场,风景名胜,全年,3.8,免费,2-3小时,站前街道十一纬路3号,124.388901,40.125143
丹东市,东坎子英国楼,风景名胜,全年,3.9,免费,2-3小时,珍珠街与和经街交叉口东300米,124.413793,40.146932
丹东市,华盛玫瑰广场,风景名胜,全年,4.0,免费,2-3小时,滨江中路28号,124.400215,40.126508
丹东市,天主堂,风景名胜,全年,4.0,免费,2-3小时,山上街与于家路交叉口北160米,124.393027,40.140131
丹东市,丹东市极乐寺,风景名胜,全年,3.8,免费,2-3小时,天后宫街95号,124.395504,40.147514
丹东市,翡翠湾公园,风景名胜,全年,3.9,免费,2-3小时,G228(鸭绿江大街),124.335666,40.050064
丹东市,大东沟公园,风景名胜,全年,4.0,免费,2-3小时,四角公园A区,124.153124,39.874027
丹东市,宝龙庵古刹,风景名胜,全年,3.8,免费,2-3小时,宝山路153号,124.393437,40.147317
丹东市,天桥沟国家森林公园丹东办事处,风景名胜,全年,3.8,免费,2-3小时,十纬路与五经街交叉口东南60米,124.389664,40.124501
丹东市,凭海临风,风景名胜,全年,4.3,免费,2-3小时,[],124.062263,39.818564
丹东市,近鸭绿江断桥面对朝鲜一线江景民宿(万达广场·安东老街八店),风景名胜,全年,3.9,免费,2-3小时,滨江中路与春四路交叉口东260米,124.369584,40.097734
丹东市,丹东黄海明珠塔景区,风景名胜,全年,3.9,免费,2-3小时,宝山大街元宝山公园内,124.397650,40.150467
丹东市,民主桥,风景名胜,全年,3.6,免费,2-3小时,锦山大街与花园路交叉口东80米,124.367931,40.111303
丹东市,四角公园A区,风景名胜,全年,3.6,免费,2-3小时,振兴街与东港路大桥交叉口东140米,124.153124,39.874027
丹东市,中朝民俗文化园,风景名胜,全年,4.0,免费,2-3小时,花园街道花园路97-7-1号,124.339429,40.131098
丹东市,丹东元宝区弥陀寺,风景名胜,全年,3.8,免费,2-3小时,崇兴街251号,124.385266,40.139748
丹东市,前阳人洞穴遗址,风景名胜,全年,3.8,免费,2-3小时,[],124.187112,40.024610
丹东市,东港佛陀寺,风景名胜,全年,3.8,免费,2-3小时,大东街道青年路77号,124.167455,39.888448
丹东市,观鸟台,风景名胜,全年,4.1,免费,2-3小时,鸭绿江口国家湿地观鸟园内(东侧),124.040271,39.810868
丹东市,前阳一拐弯,风景名胜,全年,3.5,免费,2-3小时,安阳东街旁边,124.221511,39.957764
丹东市,中国人民志愿军指挥所旧址,风景名胜,全年,3.9,免费,2-3小时,山上街辅路与花园东路交叉口东北280米,124.364457,40.118395
丹东市,丹东五龙山关帝庙,风景名胜,全年,3.9,免费,2-3小时,灵峰禅寺内(南侧),124.336517,40.268189
丹东市,鸭绿江风景名胜区-畅远亭,风景名胜,全年,3.9,免费,2-3小时,滨江中路与十纬路交汇处鸭绿江公园内,124.401175,40.127688
丹东市,泰兴纪念园,风景名胜,全年,3.8,免费,2-3小时,白房路丹东市经济管理干部学校北,124.334063,40.115454
丹东市,空军轮战部队指挥所旧址,风景名胜,全年,3.9,免费,2-3小时,石石线与前门线交叉口南460米,124.164513,39.959637
丹东市,万达广场民宿(万达国际中心),风景名胜,全年,3.5,免费,2-3小时,中金街与厚金街交叉口北120米,124.360704,40.111246
丹东市,虎山长城-万里长城第一步,风景名胜,全年,4.0,免费,2-3小时,319省道与滨海公路交叉口东南虎山长城内(东南角),124.521126,40.223294
丹东市,基督教堂,风景名胜,全年,3.6,免费,2-3小时,站北路95号,124.142802,39.900199
丹东市,中国人民志愿军总部十三兵团遗址,风景名胜,全年,4.0,免费,2-3小时,锦江山大街68号,124.364548,40.118216
丹东市,扬帆雕塑,风景名胜,全年,3.9,免费,2-3小时,滨江中路与十纬路交汇处鸭绿江公园内,124.395833,40.120384
丹东市,温泉公寓民宿(丹东丹东金山镇店),风景名胜,全年,3.5,免费,2-3小时,宗裕城C区东南侧160米,124.373529,40.182199
丹东市,丹东舰,风景名胜,全年,4.7,免费,2-3小时,鸭绿江大街11号1-1(浪头港区),124.350666,40.042940
丹东市,鸭绿江公园,风景名胜,全年,4.1,免费,2-3小时,滨海中路,124.398060,40.123564
丹东市,江山荟,风景名胜,全年,4.2,免费,2-3小时,中央大道与银河大街十字路口西南角,124.363410,40.018145
丹东市,鸭绿江浮桥遗址(暂停开放),风景名胜,全年,4.5,免费,2-3小时,鸭绿江街道滨江东路嘉豪品悦快捷酒店后面,124.441646,40.159237
丹东市,志愿军公园,风景名胜,全年,4.3,免费,2-3小时,滨江东路50号,124.429901,40.147703
丹东市,五龙山,风景名胜,全年,4.4,免费,2-3小时,五龙背镇老古沟村,124.341740,40.253180
丹东市,伪东行宫旧址,风景名胜,全年,4.0,免费,2-3小时,浪头镇,124.338124,40.035888
丹东市,宝山寺,风景名胜,全年,4.1,免费,2-3小时,天后宫街96号,124.396524,40.146609
丹东市,太阳岛,风景名胜,全年,4.1,免费,2-3小时,滨海公路,124.508822,40.210526
丹东市,鸭绿江中朝界河游船,风景名胜,全年,4.2,免费,2-3小时,浪头镇滨江中路鸭绿江1号观光码头,124.393329,40.117968
丹东市,草莓博物馆,风景名胜,全年,4.2,免费,2-3小时,金山镇炮守营,124.277531,40.205907
丹东市,汤毓麟公馆,风景名胜,全年,4.1,免费,2-3小时,兴东街道九江街15号汤公馆,124.410280,40.140230
丹东市,任国祯故居,风景名胜,全年,4.1,免费,2-3小时,胜同线与桃源街交叉口北440米,124.342470,40.098907
丹东市,锦江山公园-曙光阁,风景名胜,全年,3.8,免费,2-3小时,锦江山公园内,124.375110,40.135430
丹东市,三靖阁,风景名胜,全年,3.9,免费,2-3小时,宾馆路390号,124.372557,40.134174
丹东市,市府广场(建设中),风景名胜,全年,3.5,免费,2-3小时,金河大街与文澜路交叉口西240米,124.345403,39.996965
丹东市,江山公园(建设中),风景名胜,全年,3.9,免费,2-3小时,第三幼儿园后山,124.366906,40.125644
丹东市,辽东解放烈士纪念塔,风景名胜,全年,3.8,免费,2-3小时,山上街93号锦江山公园(东南角),124.377770,40.132045
丹东市,振兴区烈士陵园,风景名胜,全年,0.0,免费,2-3小时,花园东路与富荣街交叉口东440米,124.353995,40.126233
丹东市,丹东界河旅游度假区,风景名胜,全年,3.8,免费,2-3小时,月亮岛大街17-111号,124.368010,40.093880
丹东市,宣城古城遗址,风景名胜,全年,3.9,免费,2-3小时,太桃线与东高线交叉口西240米,124.086140,39.927980
丹东市,凤凰山,风景名胜,全年,4.7,免费,2-3小时,凤山经济管理区凤凰大道与凤山路交汇处,124.075347,40.415456
丹东市,前阳党群文化广场,风景名胜,全年,3.9,免费,2-3小时,前阳中路与艺苑街交叉口东北140米,124.208999,39.958663
丹东市,东港清真寺,风景名胜,全年,3.8,免费,2-3小时,环城大街与镇北街交叉口东北340米,124.144082,39.902988
丹东市,元宝山基督教礼拜堂,风景名胜,全年,3.7,免费,2-3小时,天后宫街教堂路24号,124.398738,40.143369
丹东市,鸭绿江湿地,风景名胜,全年,4.1,免费,2-3小时,五四农场滨海公路南侧,124.000281,39.808282
丹东市,鸭绿江断桥-炮楼,风景名胜,全年,3.8,免费,2-3小时,江岸路0号鸭绿江断桥内(西侧),124.393867,40.118731
丹东市,南岗头惨案纪念馆,风景名胜,全年,3.8,免费,2-3小时,南岗头,124.032265,39.997977
丹东市,此生必驾,风景名胜,全年,4.1,免费,2-3小时,丹集线,124.546538,40.238129
丹东市,三泰阁,风景名胜,全年,3.7,免费,2-3小时,草莓沟街22-7号,124.361819,40.153708
丹东市,前阳镇文化广场,风景名胜,全年,3.6,免费,2-3小时,前阳中学东侧约210米,124.207096,39.975669
丹东市,慈善旗林,风景名胜,全年,3.7,免费,2-3小时,滨江中路与兴五路交叉口东南120米,124.388347,40.113735
丹东市,鸭绿江文化风情园,风景名胜,全年,3.7,免费,2-3小时,滨江东路,124.417377,40.144471
丹东市,九连城古城址,风景名胜,全年,3.8,免费,2-3小时,众诚连锁振安加油站北侧80米,124.462109,40.196797
丹东市,丹东绿岛足迹馆,风景名胜,全年,3.8,免费,2-3小时,九连城镇套里村4组,124.456353,40.177216
丹东市,红色旅游小镇,风景名胜,全年,3.7,免费,2-3小时,表厂路,124.365140,40.121773
丹东市,两栖爬行动物馆,风景名胜,全年,3.7,免费,2-3小时,山上街与兴一路交叉口北340米,124.377204,40.130930
丹东市,日俄战争遗址-俄国坟,风景名胜,全年,3.6,免费,2-3小时,东平大街12号,124.468574,40.207836
丹东市,丹东光明山人文纪念园,风景名胜,全年,3.1,免费,2-3小时,红房一街与春五路交叉口南140米,124.354337,40.100352
丹东市,辽宁大孤山国家森林公园,风景名胜,全年,4.7,免费,2-3小时,孤山镇正堂路18号,123.603782,39.905978
丹东市,基督教,风景名胜,全年,3.6,免费,2-3小时,胜利街与万花园路交叉口东南260米,124.304552,40.058964
丹东市,龙泉宫,风景名胜,全年,3.9,免费,2-3小时,五龙山后山高尔夫球场山上,124.343421,40.296516
丹东市,观景亭,风景名胜,全年,3.5,免费,2-3小时,滨江中路与金海路交叉口西南200米,124.407067,40.136113
丹东市,金海桃源里观星台健身广场,风景名胜,全年,3.5,免费,2-3小时,宝山大街343号,124.379099,40.159332
丹东市,丹东市植物园,风景名胜,全年,3.7,免费,2-3小时,山上街93号锦江山公园,124.374951,40.133780
丹东市,吉祥寺,风景名胜,全年,3.8,免费,2-3小时,龙石线,124.143972,40.268573
丹东市,大孤山庙,风景名胜,全年,4.5,免费,2-3小时,孤山镇正堂路18号辽宁大孤山国家森林公园(西南角),123.601703,39.901970
丹东市,风亭叙,风景名胜,全年,3.9,免费,2-3小时,洋河大街38-3,124.344587,40.011404
丹东市,五泷河景区,风景名胜,全年,4.0,免费,2-3小时,振安区五龙背镇218老道独木桥公交站,124.330564,40.232185
丹东市,中国人民志愿军英烈厅,风景名胜,全年,0.0,免费,2-3小时,山上街7号抗美援朝纪念馆F1,124.364717,40.119107
丹东市,中朝人民友谊厅,风景名胜,全年,0.0,免费,2-3小时,抗美援朝纪念馆F1,124.365163,40.119254
丹东市,元宝区元宝山公园(工会驿站),风景名胜,全年,3.4,免费,2-3小时,八道街道宝山大街72-3号元宝山公园(西南角),124.392765,40.145067
丹东市,河口景区,风景名胜,全年,4.6,免费,2-3小时,长甸镇下河口村河口广场,124.827241,40.415190
丹东市,獐岛景区,风景名胜,全年,4.4,免费,2-3小时,北井子镇獐岛村,123.818672,39.791231
丹东市,丹东市振安区九连城镇窑沟村文化广场,风景名胜,全年,3.6,免费,2-3小时,九马线,124.477743,40.212746
丹东市,太平湖公园-革命烈士纪念碑,风景名胜,全年,3.6,免费,2-3小时,大东街与黎明胡同交叉口东140米,124.158380,39.882441
丹东市,虎山景区,风景名胜,全年,3.4,免费,2-3小时,[],124.516187,40.230356
丹东市,大梨树生态旅游区,风景名胜,全年,4.4,免费,2-3小时,西南郊10公里处桓盖线大梨树村,123.943022,40.405251
丹东市,鸭绿江战绩碑,风景名胜,全年,3.9,免费,2-3小时,九连城村镇东山山顶,124.475046,40.209890
丹东市,大鹿岛风景区,风景名胜,全年,4.6,免费,2-3小时,孤山镇,123.735245,39.755380
丹东市,后山广场,风景名胜,全年,3.5,免费,2-3小时,虎山长城内(南侧),124.520204,40.223063
丹东市,玉龙湖景区,风景名胜,全年,4.1,免费,2-3小时,玉龙湖开发区,123.914582,40.168467
丹东市,胜利的号角雕塑,风景名胜,全年,3.4,免费,2-3小时,滨江东路50号志愿军公园(东南角),124.430794,40.146915
丹东市,灵峰禅寺-丹东木子轩,风景名胜,全年,3.8,免费,2-3小时,五龙背镇五龙山风景区,124.335637,40.269789
丹东市,丹东国门,风景名胜,全年,4.6,免费,2-3小时,长甸镇下拉线与凤上线交叉口,124.880508,40.460899
丹东市,百花谷,风景名胜,全年,3.8,免费,2-3小时,黑沟村,124.283966,40.170661
丹东市,鸭绿江河口断桥,风景名胜,全年,4.5,免费,2-3小时,河口景区,124.828280,40.413813
丹东市,龙王庙,风景名胜,全年,3.7,免费,2-3小时,[],124.427374,40.303644
丹东市,神仙谷生态公园,风景名胜,全年,4.0,免费,2-3小时,闫土线,124.317243,40.390656
丹东市,叆河风景区,风景名胜,全年,4.2,免费,2-3小时,东汤草河大桥头右侧,124.193473,40.447394
丹东市,百花谷国家A级旅游景区,风景名胜,全年,3.8,免费,2-3小时,黑沟村,124.278960,40.168972
丹东市,江沿台堡遗址,风景名胜,全年,3.9,免费,2-3小时,[],124.461187,40.288263
丹东市,虎山长城-过街城楼,风景名胜,全年,3.7,免费,2-3小时,319省道与滨海公路交叉口东南虎山长城内(东北角),124.521868,40.230758
丹东市,浪头镇文化广场,风景名胜,全年,3.4,免费,2-3小时,北环路与黄海大道交叉口东20米,124.333688,40.041296
丹东市,保安寺,风景名胜,全年,3.8,免费,2-3小时,汤山城镇佛山村四组,124.187245,40.334192
丹东市,过江雕塑,风景名胜,全年,3.6,免费,2-3小时,滨江东路与东升路交叉口东400米,124.429702,40.146046
丹东市,丹东市下拉线音乐公路,风景名胜,全年,4.4,免费,2-3小时,下拉线东南侧,124.809212,40.410859
丹东市,振安区烈士陵园,生活服务,全年,0.0,免费,2-3小时,柞徒线附近,124.270986,40.265423
丹东市,民主人士北上登陆地,风景名胜,全年,3.1,免费,2-3小时,天津街34号2,124.346946,40.043300
丹东市,五龙山-观音阁,风景名胜,全年,3.5,免费,2-3小时,五龙山风景区内,124.334532,40.253708
丹东市,东港市北井子镇徐坨村田野主题公园,风景名胜,全年,4.0,免费,2-3小时,林小线,123.885727,39.910571
丹东市,丹东桃花岛,风景名胜,全年,4.4,免费,2-3小时,长甸镇河口村,124.812418,40.406630
丹东市,虎山长城-观光车乘车处,风景名胜,全年,3.6,免费,2-3小时,虎山长城(西北角),124.516486,40.229830
丹东市,英华山,风景名胜,全年,3.5,免费,2-3小时,山上街7号抗美援朝纪念馆内(东侧),124.367428,40.119016
丹东市,口袋公园,风景名胜,全年,3.5,免费,2-3小时,九江街和滨江路交叉路口处,124.410363,40.139253
丹东市,东港市果汇山,风景名胜,全年,3.7,免费,2-3小时,石龙线与三官街交叉口东南120米,123.973639,39.956034
丹东市,长清湖-枕水居,风景名胜,全年,3.6,免费,2-3小时,孙家堡子附近,124.014974,40.100386
丹东市,零海岸泥螺滩,风景名胜,全年,4.1,免费,2-3小时,五四农场滨海公路南侧鸭绿江湿地,124.000276,39.808282
丹东市,夹河神树,风景名胜,全年,3.9,免费,2-3小时,[],124.489394,40.288271
丹东市,虎山长城-虎口崖,风景名胜,全年,3.8,免费,2-3小时,319省道与滨海公路交叉口东南虎山长城内(东南角),124.523360,40.224204
丹东市,丹东市消防主题公园,风景名胜,全年,3.5,免费,2-3小时,鸭绿江文化风情园(东南角),124.418369,40.144002
丹东市,五龙山观景台,风景名胜,全年,3.6,免费,2-3小时,丹通高速五龙山休息区,124.364533,40.257117
丹东市,花海亭,风景名胜,全年,3.2,免费,2-3小时,三泰阁东北侧230米,124.364182,40.154881
丹东市,稻画传说,风景名胜,全年,4.0,免费,2-3小时,徐家坨子村,123.885839,39.912949
丹东市,宗裕城民宿(丹东金山镇一店),风景名胜,全年,3.4,免费,2-3小时,醉源海鲜家常菜(宗裕城B区店)西侧120米,124.374876,40.180094
丹东市,渔骨庙,风景名胜,全年,3.4,免费,2-3小时,佛爷岭村卫生所西南侧220米,124.212926,40.102646
丹东市,滨江游园,风景名胜,全年,3.5,免费,2-3小时,江城大街288-1号附近,124.406935,40.135990
丹东市,紫花谷,风景名胜,全年,4.1,免费,2-3小时,东边线,124.015813,40.271792
丹东市,凤凰山山门,风景名胜,全年,4.2,免费,2-3小时,G304(凤山路),124.069124,40.429326
丹东市,和平雕塑,风景名胜,全年,3.3,免费,2-3小时,滨江东路与东升路交叉口东340米,124.428598,40.147332
丹东市,十二多肉植物园,风景名胜,全年,3.7,免费,2-3小时,兴北街与东港北路交叉口西南420米,124.139011,39.888992
丹东市,九水峡漂流,风景名胜,全年,4.3,免费,2-3小时,虎山镇长岗子村2组,124.533630,40.392006
丹东市,岚山宜景园,风景名胜,全年,3.7,免费,2-3小时,马家店镇马荒线南300米,123.862525,39.970044
丹东市,凤凰山-西山景区,风景名胜,全年,3.9,免费,2-3小时,市区东南3公里处中国凤凰山国家级风景名胜区内,124.081735,40.414696
丹东市,告别祖国雕塑,风景名胜,全年,3.6,免费,2-3小时,滨江东路与东齐路交叉口西南400米,124.415903,40.142153
丹东市,雷击枣木博物馆,风景名胜,全年,3.7,免费,2-3小时,江海华盛医院东北侧250米,124.442505,40.163758
丹东市,山顶烽火台,风景名胜,全年,3.5,免费,2-3小时,虎山长城(东南角),124.521995,40.225116
丹东市,虎山长城-千米栈道,风景名胜,全年,3.5,免费,2-3小时,319省道与滨海公路交叉口东南虎山长城内(东南角),124.521724,40.223663
丹东市,葫芦园,风景名胜,全年,3.7,免费,2-3小时,双山西小学北(丹大高速公路北),123.883544,39.934352
丹东市,沙滩广场,风景名胜,全年,3.9,免费,2-3小时,太阳岛东北侧340米,124.511093,40.213152
丹东市,海洋红风景区,风景名胜,全年,4.3,免费,2-3小时,菩萨庙镇张砺线,123.553004,39.760614
丹东市,昭林玄工坊,风景名胜,全年,3.5,免费,2-3小时,解放街218号,124.385473,40.147826
丹东市,锦江山公园-回归阁,风景名胜,全年,3.5,免费,2-3小时,山上街93号锦江山公园,124.375447,40.133748
丹东市,凤城苏华苑广场,风景名胜,全年,4.1,免费,2-3小时,凤山路,124.080145,40.454206
丹东市,文化园,风景名胜,全年,3.1,免费,2-3小时,山上街93号,124.380693,40.131215
丹东市,溥仪安东巡狩纪念碑,风景名胜,全年,3.5,免费,2-3小时,爱民街103号,124.375888,40.135603
丹东市,丹东护生园,风景名胜,全年,3.4,免费,2-3小时,九连城镇下尖村套里一队,124.466599,40.183078
丹东市,太平湾平湖风景区,风景名胜,全年,4.1,免费,2-3小时,太平湾镇,124.732596,40.343878
丹东市,人石谷,风景名胜,全年,3.6,免费,2-3小时,[],124.210311,40.118157
丹东市,基石广场,风景名胜,全年,3.3,免费,2-3小时,山上街7号抗美援朝纪念馆(西南角),124.363863,40.118114
丹东市,向日葵花海,风景名胜,全年,3.5,免费,2-3小时,滨海公路太阳岛旅游度假区内,124.509839,40.213578
丹东市,辛府,风景名胜,全年,3.0,免费,2-3小时,祥和驾校训练场附近,124.413080,40.204903
丹东市,玉清内相府,风景名胜,全年,3.9,免费,2-3小时,[],124.405510,40.294123
丹东市,铁路抗美援朝博物馆,风景名胜,全年,0.0,免费,2-3小时,长甸镇上河口铁路景区X624,124.874654,40.455352
丹东市,凤城基督教堂,风景名胜,全年,4.1,免费,2-3小时,凤凰大街21号,124.073520,40.453679
丹东市,老牛背,风景名胜,全年,3.9,免费,2-3小时,市区东南3公里处中国凤凰山国家级风景名胜区西山景区内,124.078195,40.418575
丹东市,安东新闻社旧址,风景名胜,全年,3.4,免费,2-3小时,七经街15号,124.390016,40.127922
丹东市,生命之援雕塑,风景名胜,全年,3.4,免费,2-3小时,志愿军公园东侧100米,124.431178,40.147535
丹东市,响水寺,风景名胜,全年,4.0,免费,2-3小时,[],123.673658,40.067728
丹东市,佛爷庙,风景名胜,全年,3.3,免费,2-3小时,大顶子药房东北侧50米,124.040703,39.911372
丹东市,桃源桥,风景名胜,全年,3.4,免费,2-3小时,山上街辅路与桃铁路交叉口东60米,124.362931,40.115106
丹东市,高句丽古城墙,风景名胜,全年,4.0,免费,2-3小时,[],124.102036,40.395798
丹东市,花园河休闲走廊,风景名胜,全年,3.2,免费,2-3小时,花园路辅路与锦山大街交叉口北20米,124.366985,40.111340
丹东市,丹东天桥沟景区(暂停开放),风景名胜,全年,4.5,免费,2-3小时,天桥沟,124.656984,41.050884
锦州市,锦州古塔历史文化公园,风景名胜,全年,4.7,免费,2-3小时,北街街道古城街道士英南街6号,121.124729,41.110371
锦州市,辽沈战役纪念馆,风景名胜,全年,4.6,免费,2-3小时,重庆路36号,121.148175,41.129367
锦州市,南山公园,风景名胜,全年,4.7,免费,2-3小时,锦州市果树农场松山新区大碑,121.155563,41.074708
锦州市,市府广场,风景名胜,全年,4.2,免费,2-3小时,市府路68号(近锦州市市政府),121.126356,41.093483
锦州市,锦州动物园,风景名胜,全年,4.6,免费,2-3小时,石桥子街道人民街5段11号,121.132653,41.138496
锦州市,儿童公园,风景名胜,全年,4.3,免费,2-3小时,路三段9斜对过,121.132227,41.121557
锦州市,锦州北普陀山风景名胜区,风景名胜,全年,4.7,免费,2-3小时,重观路1号,121.056772,41.175495
锦州市,布达拉宫广场,风景名胜,全年,4.8,免费,2-3小时,九华山风景区,121.339291,41.158923
锦州市,九华山公园,风景名胜,全年,4.7,免费,2-3小时,商业街与环城路交汇处以南,121.339973,41.165191
锦州市,宝石广场,风景名胜,全年,4.2,免费,2-3小时,上海路四段5号甲56号,121.146599,41.119764
锦州市,八一公园,风景名胜,全年,4.3,免费,2-3小时,广州街18号,121.173419,41.113077
锦州市,祐国寺,风景名胜,全年,4.2,免费,2-3小时,士英南街9号,121.126121,41.107202
锦州市,女儿河公园,风景名胜,全年,4.1,免费,2-3小时,福州街与204省道交叉口西北340米,121.126970,41.081887
锦州市,天主堂,风景名胜,全年,4.2,免费,2-3小时,山西街1-11号附近,121.135199,41.111913
锦州市,玉佛禅寺,风景名胜,全年,4.2,免费,2-3小时,饶阳街道人民街玉佛寺(近古塔转盘),121.131127,41.111129
锦州市,西湖湿地公园,风景名胜,全年,4.2,免费,2-3小时,凌西大街,121.106022,41.078969
锦州市,广济寺塔,风景名胜,全年,4.2,免费,2-3小时,南街与东街交叉口西100米,121.125404,41.111271
锦州市,蓬莱大集(城市文旅大集),风景名胜,全年,4.2,免费,2-3小时,锦朝街与蓬来北街交叉口西北140米,121.109453,41.142376
锦州市,清真寺,风景名胜,全年,4.3,免费,2-3小时,上海路58号,121.121718,41.122376
锦州市,卧波桥,风景名胜,全年,3.9,免费,2-3小时,光彩立交桥女儿河公园内(东侧),121.135914,41.083902
锦州市,东北交通大学遗址公园,风景名胜,全年,4.1,免费,2-3小时,敬业东里68号楼东侧,121.129689,41.127140
锦州市,弘法寺,风景名胜,全年,4.1,免费,2-3小时,太安里125号楼71号,121.107905,41.112281
锦州市,善来寺,风景名胜,全年,4.3,免费,2-3小时,[],121.216759,41.077943
锦州市,锦州基督教堂,风景名胜,全年,4.1,免费,2-3小时,洛阳路三段32号,121.132485,41.111961
锦州市,岩井寺风景区,风景名胜,全年,4.2,免费,2-3小时,209省道,121.111089,41.233961
锦州市,石化公园,风景名胜,全年,4.2,免费,2-3小时,石化医院西门旁,121.114681,41.135058
锦州市,锦州苹果廉政文化广场,风景名胜,全年,4.2,免费,2-3小时,苹果廉政文化景区内,121.212960,41.084672
锦州市,锦州北普陀山风景名胜区北普陀寺,风景名胜,全年,4.3,免费,2-3小时,勃海路1号锦州北普陀山风景名胜区内(西侧),121.043142,41.176157
锦州市,南桥水上公园,风景名胜,全年,4.1,免费,2-3小时,山东街与南昌路交叉口西南180米,121.143192,41.104572
锦州市,锦州锦汤山庄温泉,风景名胜,全年,4.3,免费,2-3小时,女儿河乡北汤河子村,120.954357,41.081413
锦州市,辽沈战役配水池战斗遗址,风景名胜,全年,4.5,免费,2-3小时,士英街道松坡路(辽宁工业大学东北侧约100米),121.127338,41.148186
锦州市,锦州北普陀山风景名胜区-观音古洞,风景名胜,全年,4.2,免费,2-3小时,笔架山开发区勃海路1号锦州北普陀山旅游区,121.051343,41.174400
锦州市,辽沈战役烈士陵园,风景名胜,全年,0.0,免费,2-3小时,北京路五段一号,121.148934,41.129637
锦州市,辽沈战役纪念馆主体陈列馆,风景名胜,全年,4.2,免费,2-3小时,北京路与爱民街交叉口西南160米,121.149095,41.131179
锦州市,锦州城址,风景名胜,全年,3.9,免费,2-3小时,人民街1-112号,121.132548,41.108100
锦州市,锦铁768公园,风景名胜,全年,4.0,免费,2-3小时,延安路与贵州街交叉口北340米,121.169305,41.124164
锦州市,边墙子虎溪民俗文化村,风景名胜,全年,4.2,免费,2-3小时,虎溪文化村北侧,121.061712,41.200686
锦州市,南山公园-观景台,风景名胜,全年,3.9,免费,2-3小时,松山赋西侧,121.145314,41.065103
锦州市,慈贤寺,风景名胜,全年,4.0,免费,2-3小时,北一里古城新苑1-103号,121.117956,41.114437
锦州市,萧军公园,风景名胜,全年,4.2,免费,2-3小时,新村街15号,121.369990,41.176143
锦州市,东湖广场,风景名胜,全年,4.0,免费,2-3小时,滨河路,121.162945,41.094323
锦州市,辽西九华山文化广场,风景名胜,全年,4.3,免费,2-3小时,国庆路135号,121.336031,41.158233
锦州市,南山公园-广场,风景名胜,全年,3.8,免费,2-3小时,果树农场松山新区大碑南山公园(东北角),121.158569,41.076264
锦州市,宪法广场,风景名胜,全年,3.8,免费,2-3小时,卫东街8号东湖公园内(西侧),121.150889,41.103763
锦州市,东湖文化广场,风景名胜,全年,4.1,免费,2-3小时,卫东街8号东湖公园内(西侧),121.154470,41.101954
锦州市,明珠广场,风景名胜,全年,4.2,免费,2-3小时,健康路30号,121.359527,41.171906
锦州市,凌河公园-观景台,风景名胜,全年,3.9,免费,2-3小时,士英南街与阜康路交叉口西南220米,121.118332,41.109889
锦州市,龟山长城遗址,风景名胜,全年,4.1,免费,2-3小时,[],120.979384,41.152643
锦州市,锦州北普陀山风景名胜区-二郎洞,风景名胜,全年,4.0,免费,2-3小时,北普陀山风景名胜区,121.069490,41.175710
锦州市,慈海寺,风景名胜,全年,4.3,免费,2-3小时,商业街与环城路交汇处(近辽西九华山景区),121.339065,41.160047
锦州市,白老虎屯战斗遗址,风景名胜,全年,0.0,免费,2-3小时,虎连街与松坡路交叉口北320米,121.132633,41.152257
锦州市,锦州基督教以琳堂,风景名胜,全年,3.9,免费,2-3小时,善德街西50米,121.152925,41.147758
锦州市,崇寿寺,风景名胜,全年,3.9,免费,2-3小时,南沟里曙光街10号,121.155782,41.059710
锦州市,消防文化主题公园,风景名胜,全年,3.8,免费,2-3小时,松山新区吉祥街,121.114609,41.101516
锦州市,观音阁,风景名胜,全年,3.8,免费,2-3小时,胜昔路与南街交叉口西南40米,121.125569,41.112238
锦州市,安和里公园,风景名胜,全年,3.9,免费,2-3小时,云飞街29号,121.147850,41.112764
锦州市,云飞公园,风景名胜,全年,3.9,免费,2-3小时,解放路与云飞街交叉口东北方向,121.147411,41.116102
锦州市,小凌禅寺,风景名胜,全年,4.0,免费,2-3小时,双羊村紫荆山上,121.255459,41.124919
锦州市,欢乐岛,风景名胜,全年,3.9,免费,2-3小时,靖东街与南阳路交叉口南340米,121.157563,41.101862
锦州市,桥头公园,风景名胜,全年,3.8,免费,2-3小时,森淼家园308号楼-8号,121.106339,41.115385
锦州市,梁士英炸地堡遗址,风景名胜,全年,3.8,免费,2-3小时,世纪新城左侧200米,121.116126,41.126081
锦州市,女儿河文化公园,风景名胜,全年,3.8,免费,2-3小时,锦州市少儿图书馆西北侧240米,121.160450,41.088891
锦州市,班吉塔,风景名胜,全年,4.1,免费,2-3小时,306省道,120.868204,41.195907
锦州市,千佛寺,风景名胜,全年,4.1,免费,2-3小时,松山全科门诊西侧290米,121.145250,41.028703
锦州市,凌河区水上公园冰雪大世界,风景名胜,全年,3.6,免费,2-3小时,中央大街南条凌河公园内,121.143230,41.104528
锦州市,西游梦幻谷,风景名胜,全年,4.0,免费,2-3小时,南广路与解放路交叉口东南200米,121.203705,41.117925
锦州市,小布达拉宫景区民宿(锦州凌海南站店),风景名胜,全年,4.0,免费,2-3小时,国庆路与西四街交叉口东160米,121.349798,41.172052
锦州市,十里金沙滩,风景名胜,全年,4.2,免费,2-3小时,滨海路与辽东大街交叉口东260米,121.169217,40.887274
锦州市,新世纪水上公园,风景名胜,全年,3.9,免费,2-3小时,土英南街南侧,121.125546,41.105747
锦州市,三慧寺,风景名胜,全年,3.8,免费,2-3小时,大围子,121.104571,41.043083
锦州市,东湖森林公园-观景台,风景名胜,全年,3.8,免费,2-3小时,卫东街8号东湖公园内(东侧),121.170096,41.101100
锦州市,锦州北普陀山风景名胜区-观音洞山,风景名胜,全年,4.0,免费,2-3小时,勃海路1号北普陀山风景名胜区内,121.049921,41.173082
锦州市,锦州海边,风景名胜,全年,4.2,免费,2-3小时,滨海大街与恒山路交叉口东140米,121.087419,40.871846
锦州市,三圣寺,风景名胜,全年,3.9,免费,2-3小时,G2512阜锦高速,121.242502,41.131005
锦州市,怡园,风景名胜,全年,4.0,免费,2-3小时,和平路与锦铁三街交叉口西60米,121.157372,41.119811
锦州市,兴隆寺,风景名胜,全年,4.1,免费,2-3小时,四桶碑村,121.303939,41.135850
锦州市,河心岛,风景名胜,全年,3.8,免费,2-3小时,科技路19-42号,121.125537,41.078961
锦州市,演法寺,风景名胜,全年,4.0,免费,2-3小时,翠岩镇郭荒地村,121.019275,41.181844
锦州市,南山秋,风景名胜,全年,3.6,免费,2-3小时,209省道附近,121.150053,41.074126
锦州市,锦州赋广场,风景名胜,全年,3.9,免费,2-3小时,卫东街8号东湖公园(西北角),121.164549,41.102542
锦州市,明长城紫荆山烽火台遗址,风景名胜,全年,3.9,免费,2-3小时,南广路22-45,121.230929,41.117924
锦州市,茶山寺,风景名胜,全年,3.7,免费,2-3小时,为民路与锦义街交叉口西南280米,121.164103,41.148942
锦州市,观光塔,风景名胜,全年,3.7,免费,2-3小时,原生街锦州东湖森林公园,121.166367,41.099012
锦州市,边家小庙,风景名胜,全年,3.8,免费,2-3小时,解放西路175-33号附近,121.095871,41.102049
锦州市,地球广场,风景名胜,全年,3.5,免费,2-3小时,辽宁理工学院内,121.123439,41.082635
锦州市,凌河公园-休息亭,风景名胜,全年,3.5,免费,2-3小时,中央大街与南京路交叉口南120米,121.138453,41.106375
锦州市,锦州木化石林,风景名胜,全年,3.9,免费,2-3小时,锦州古塔历史文化公园西门内,121.123564,41.111385
锦州市,锦州北普陀山旅游区-瀑布,风景名胜,全年,4.2,免费,2-3小时,勃海路1号北普陀山风景名胜区内,121.060841,41.181681
锦州市,凌河公园,风景名胜,全年,4.2,免费,2-3小时,[],121.143195,41.105069
锦州市,东湖公园,风景名胜,全年,4.5,免费,2-3小时,卫东街8号,121.165514,41.101191
锦州市,广济寺,风景名胜,全年,4.2,免费,2-3小时,北街街道古城街道士英南街6号锦州古塔历史文化公园(东北角),121.125396,41.111132
锦州市,紫荆山公园,风景名胜,全年,4.2,免费,2-3小时,大锦线,121.223138,41.120700
锦州市,锦州世博园(暂停开放),风景名胜,全年,4.4,免费,2-3小时,世园路1号,121.200718,40.904936
锦州市,锦州市笔架山风景区(暂停营业),风景名胜,全年,4.8,免费,2-3小时,渤海大街1号,121.073324,40.828942
锦州市,翠岩禅寺,风景名胜,全年,4.2,免费,2-3小时,锦东线,121.021074,41.233027
锦州市,锦州凌海红海滩,风景名胜,全年,4.6,免费,2-3小时,建业镇滨海公路,121.327342,40.918684
锦州市,凌南公园,风景名胜,全年,3.9,免费,2-3小时,小凌河南桥南头,121.135988,41.100181
锦州市,东北野战军锦州前线指挥所旧址,风景名胜,全年,4.5,免费,2-3小时,306省道北200米,120.999995,41.226203
锦州市,解放锦州烈士陵园,风景名胜,全年,0.0,免费,2-3小时,士英街道英雄路1号,121.095666,41.180401
锦州市,双凌公园,风景名胜,全年,4.0,免费,2-3小时,[],121.238682,41.100776
锦州市,北普陀山禅寺,风景名胜,全年,3.9,免费,2-3小时,笔架山开发区勃海路1号锦州北普陀山旅游区北普陀寺内,121.044376,41.175320
锦州市,范屯土地庙,风景名胜,全年,3.9,免费,2-3小时,安行路与致远路交叉口东北500米,121.143560,41.154333
锦州市,基督教永和堂,风景名胜,全年,3.7,免费,2-3小时,锦娘路永和国际2-111号,121.157317,41.083135
锦州市,锦州笔架山岛,风景名胜,全年,4.2,免费,2-3小时,渤海大街1号,121.083695,40.808388
锦州市,白沙湾国际浴场,风景名胜,全年,4.2,免费,2-3小时,王家街道滨海大街与嘉陵江街交叉口东220米,121.100407,40.876771
锦州市,十里金沙滩东部一号海滨浴场,风景名胜,全年,4.3,免费,2-3小时,滨海大道南100米,121.146445,40.887736
锦州市,水手营子遗址,风景名胜,全年,3.7,免费,2-3小时,松山新区水手营子村,121.227070,41.090919
锦州市,老母洞,风景名胜,全年,4.1,免费,2-3小时,渤海大街10-29号,121.081825,40.862431
锦州市,锦州印光念佛堂,风景名胜,全年,3.8,免费,2-3小时,[],121.107836,40.962781
锦州市,三屯村文化广场,风景名胜,全年,3.9,免费,2-3小时,水胜线与209省道交叉口东北50米太和区大薛乡三屯村民委员会附近,121.136862,41.173159
锦州市,锦州市笔架山风景区-海滨公园,风景名胜,全年,4.2,免费,2-3小时,渤海大街1号锦州市笔架山风景区,121.073159,40.828379
锦州市,辽宁义县青塔禅寺,风景名胜,全年,4.2,免费,2-3小时,305国道,121.253411,41.374993
锦州市,地藏寺,风景名胜,全年,3.8,免费,2-3小时,地藏寺村北侧,120.963020,41.094260
锦州市,善缘古刹,风景名胜,全年,3.8,免费,2-3小时,重观路1号锦州北普陀山风景名胜区内(东侧),121.073701,41.176043
锦州市,白云寺,风景名胜,全年,3.9,免费,2-3小时,大凌河街道土台村,121.321561,41.169549
锦州市,朱瑞将军纪念碑,风景名胜,全年,3.8,免费,2-3小时,北京路与锦义街交叉口南220米,121.148005,41.130353
锦州市,辽沈战役纪念馆-报告厅,风景名胜,全年,3.7,免费,2-3小时,北京路五段1号辽沈战役纪念馆内(北侧),121.148636,41.131149
锦州市,辽沈战役遗址,风景名胜,全年,4.2,免费,2-3小时,翠岩镇东北野战军锦州前线指挥所旧址北侧,121.000008,41.226302
锦州市,耶律楚材,风景名胜,全年,3.6,免费,2-3小时,士英南街锦州古塔历史文化公园(东南角),121.125569,41.109258
锦州市,百年招银林,风景名胜,全年,3.5,免费,2-3小时,中央大街与南京路交叉口西南280米,121.137626,41.104998
锦州市,吴娜8881附属医院对面民宿(北湖公园/205医院店),风景名胜,全年,3.6,免费,2-3小时,北京路与人民街交叉口西140米,121.129739,41.133513
锦州市,锦州东湖森林公园-亲水平台,风景名胜,全年,3.5,免费,2-3小时,菊园街道卫东街8号东湖公园内(西侧),121.162880,41.101896
锦州市,八塔山景区,风景名胜,全年,4.2,免费,2-3小时,辽八塔旅游景区北侧,121.210607,41.428942
锦州市,阳光空气自然主题公园,风景名胜,全年,3.5,免费,2-3小时,解放西路237号,121.110263,41.110317
锦州市,和悦广场,风景名胜,全年,3.1,免费,2-3小时,宝地铂金大厦,121.139265,41.092999
锦州市,笔架山岛-山门,风景名胜,全年,4.1,免费,2-3小时,渤海大街1号锦州笔架山风景区笔架山岛,121.081797,40.812951
锦州市,道光二五文化广场,风景名胜,全年,3.8,免费,2-3小时,中央大街96号,121.144563,41.105026
锦州市,星空壹号机车公园,风景名胜,全年,3.8,免费,2-3小时,[],121.080501,41.129487
锦州市,中日甲午战争亮甲山遗址,风景名胜,全年,3.8,免费,2-3小时,松坡路锦州医科大学内,121.147215,41.150470
锦州市,凌海市大凌河水上公园,风景名胜,全年,4.0,免费,2-3小时,[],121.389555,41.170932
锦州市,萧军纪念馆,风景名胜,全年,4.0,免费,2-3小时,国庆路32号,121.371529,41.177236
锦州市,三才寺,风景名胜,全年,3.7,免费,2-3小时,[],121.213993,41.229289
锦州市,凌海市翠岩镇天仙观,风景名胜,全年,4.0,免费,2-3小时,[],120.965938,41.266352
锦州市,东北解放战争革命烈士纪念碑,风景名胜,全年,3.8,免费,2-3小时,北京路五段1号辽沈战役纪念馆,121.149031,41.129333
锦州市,双井寺,风景名胜,全年,3.8,免费,2-3小时,[],121.123170,41.298251
锦州市,辽沈战役纪念馆全景画馆,风景名胜,全年,3.7,免费,2-3小时,北京路五段1号辽沈战役纪念馆内(东北角),121.149176,41.131537
锦州市,娘娘宫镇北凌村文化活动广场,风景名胜,全年,3.6,免费,2-3小时,娘娘宫镇北凌村,121.242682,40.975036
锦州市,财神殿,风景名胜,全年,3.8,免费,2-3小时,笔架山开发区勃海路1号锦州北普陀山旅游区北普陀寺内,121.046212,41.174186
锦州市,老爷庙,风景名胜,全年,3.7,免费,2-3小时,松坡路与锦义街交叉口西160米,121.152653,41.138342
锦州市,东湖和平鸽广场,风景名胜,全年,3.5,免费,2-3小时,卫东街8号东湖公园(东南角),121.170322,41.098795
锦州市,凌海靠山公园(暂停开放),风景名胜,全年,3.8,免费,2-3小时,308省道西50米,121.327816,41.157207
锦州市,圣水观音,风景名胜,全年,3.8,免费,2-3小时,勃海路1号北普陀山风景名胜区内,121.047863,41.173287
锦州市,凌河区红色廉政主题广场,风景名胜,全年,3.5,免费,2-3小时,北宁路与安达街交叉口西100米,121.139583,41.141562
锦州市,凌海市长城翠岩墩台,风景名胜,全年,3.9,免费,2-3小时,锦东线,121.024615,41.241736
锦州市,大雄宝殿,风景名胜,全年,3.9,免费,2-3小时,重观路1号锦州北普陀山风景名胜区,121.055327,41.171708
锦州市,健康主题公园,风景名胜,全年,4.1,免费,2-3小时,龙海广场内(西侧),121.080629,40.835905
锦州市,军威园,风景名胜,全年,3.8,免费,2-3小时,重庆路36号辽沈战役纪念馆(西北角),121.147135,41.131075
锦州市,八一公园-休息亭,风景名胜,全年,3.4,免费,2-3小时,广州街18号八一公园内(南侧),121.173846,41.111815
锦州市,锦州站民宿,风景名胜,全年,3.5,免费,2-3小时,延安路与锦华街交叉口东北120米,121.137081,41.124966
锦州市,八一公园北园,风景名胜,全年,3.7,免费,2-3小时,解放路,121.173026,41.114409
锦州市,南庄里文化广场,风景名胜,全年,3.6,免费,2-3小时,[],121.100102,41.088043
锦州市,凌海市文化广场,风景名胜,全年,3.7,免费,2-3小时,[],121.314079,41.143003
锦州市,锦州北普陀山风景名胜区-鸡冠山(暂停开放),风景名胜,全年,3.7,免费,2-3小时,重观路1号锦州北普陀山风景名胜区(西南角),121.048876,41.167222
锦州市,兴隆禅寺,风景名胜,全年,3.6,免费,2-3小时,中信路30号,120.999261,41.082358
锦州市,吉祥寺,风景名胜,全年,3.8,免费,2-3小时,双羊镇腰路子村,121.292131,41.086083
锦州市,OneDay布达拉宫100米投影民宿(凌海市店),风景名胜,全年,3.8,免费,2-3小时,九华山大街与花园路交叉口北180米,121.341643,41.157443
锦州市,凌海市委党校张鸣岐纪念馆,风景名胜,全年,4.0,免费,2-3小时,大凌河镇尤山子村兴工街,121.361708,41.193820
锦州市,辽西民俗博物馆,风景名胜,全年,4.0,免费,2-3小时,世园路1号锦州世博园(东北角),121.203665,40.910124
锦州市,别有洞天,风景名胜,全年,3.8,免费,2-3小时,勃海路1号北普陀山风景名胜区内,121.058275,41.182390
锦州市,奉国寺,风景名胜,全年,4.8,免费,2-3小时,东街18号,121.247945,41.544712
锦州市,科普植物园,风景名胜,全年,3.5,免费,2-3小时,科技路渤海大学(松山校区),121.120094,41.089914
锦州市,泓玄阁财神殿,风景名胜,全年,3.6,免费,2-3小时,辽西郡文商旅综合体1层02号财神殿,121.138696,41.114441
锦州市,一线天,风景名胜,全年,4.2,免费,2-3小时,天桥街道渤海大街1号锦州笔架山风景区笔架山岛,121.084954,40.804161
锦州市,山海福地,风景名胜,全年,3.8,免费,2-3小时,渤海大街10-29号,121.081655,40.864291
锦州市,八塔子塔,风景名胜,全年,4.0,免费,2-3小时,[],121.207600,41.429676
锦州市,张作霖墓园,风景名胜,全年,4.1,免费,2-3小时,712县道,121.568205,41.284889
锦州市,锦州动物园-环尾狐猴,风景名胜,全年,3.4,免费,2-3小时,石桥子街道人民街5段11号锦州动物园(东北角),121.136193,41.140438
锦州市,桃源洞府,风景名胜,全年,3.8,免费,2-3小时,桃园下屯,121.136591,41.035006
锦州市,烈士张士毅之墓,风景名胜,全年,0.0,免费,2-3小时,重庆路36号辽沈战役纪念馆(东北角),121.149650,41.130168
锦州市,武术广场,风景名胜,全年,3.5,免费,2-3小时,卫东街8号东湖公园内(东侧),121.175347,41.101268
锦州市,锦州北普陀山风景名胜区-财神庙,风景名胜,全年,3.6,免费,2-3小时,笔架山开发区勃海路1号北普陀山旅游区观音洞景区内,121.050190,41.174478
锦州市,锦州壹间民宿(凌河·古塔夜市店),风景名胜,全年,3.5,免费,2-3小时,山西街与南宁路交叉口东南40米,121.136811,41.114111
锦州市,海湾山,风景名胜,全年,3.7,免费,2-3小时,锦州市经济技术开发区锦州市经济开发区往家街道后,121.132585,40.900672
锦州市,沙滩浴场,风景名胜,全年,4.0,免费,2-3小时,世园路1号锦州世博园(西北角),121.192982,40.912132
锦州市,凌海市松石园,风景名胜,全年,3.6,免费,2-3小时,G102(京抚线),121.425813,41.204257
锦州市,锦州笔架山风景区-长廊,风景名胜,全年,3.9,免费,2-3小时,渤海大街1号锦州笔架山风景区,121.073007,40.827316
锦州市,大美温滴楼花海,风景名胜,全年,3.8,免费,2-3小时,温滴楼镇大茂堡村,121.127087,41.274607
锦州市,绿古园,风景名胜,全年,3.3,免费,2-3小时,南街与东街交叉口南220米,121.126015,41.108968
锦州市,普贤阁,风景名胜,全年,3.6,免费,2-3小时,笔架山开发区勃海路1号锦州北普陀山旅游区北普陀寺内,121.040037,41.177709
锦州市,东玉皇庙,风景名胜,全年,3.7,免费,2-3小时,[],121.251729,40.969495
锦州市,水景园,风景名胜,全年,3.3,免费,2-3小时,南京路与山西街交叉口东南220米,121.135918,41.105309
锦州市,松山赋,风景名胜,全年,3.1,免费,2-3小时,南山公园,121.145685,41.065022
锦州市,青岩寺风景区,风景名胜,全年,4.8,免费,2-3小时,大榆树堡镇石匣子村,121.614435,41.479206
锦州市,Xfplus民宿(锦州古塔公园福德转盘锦州火车站店),风景名胜,全年,3.3,免费,2-3小时,宜昌路与兴安街交叉口西160米,121.125821,41.119364
锦州市,地球下的岛国-新西兰,风景名胜,全年,2.9,免费,2-3小时,世园路1号锦州世博园内(北侧),121.200816,40.914394
锦州市,锦州市松山新区基督教永和堂,风景名胜,全年,3.1,免费,2-3小时,松山新区锦娘路永和国际2-111号,121.158810,41.082293
锦州市,观音寺,风景名胜,全年,3.7,免费,2-3小时,[],121.388543,41.088406
锦州市,南站风情小镇,风景名胜,全年,3.0,免费,2-3小时,[],121.116939,41.016830
锦州市,猴馆-黑帽悬猴,风景名胜,全年,3.5,免费,2-3小时,石桥子街道人民街5段11号锦州动物园(东北角),121.136389,41.140418
锦州市,西安街广场,风景名胜,全年,3.4,免费,2-3小时,宜昌路与西安街交叉口西北120米,121.119683,41.121137
锦州市,石桥子绿地,风景名胜,全年,3.4,免费,2-3小时,中央北街与松坡路交叉口西200米,121.144398,41.143531
锦州市,锦州北普陀山风景名胜区-万佛堂,风景名胜,全年,3.6,免费,2-3小时,笔架山开发区勃海路1号北普陀山旅游区观音洞景区内,121.050913,41.174450
锦州市,锦州北普陀山风景名胜区-月老庙,风景名胜,全年,3.5,免费,2-3小时,笔架山开发区勃海路1号北普陀山旅游区观音洞景区内,121.050921,41.174557
锦州市,拙园,风景名胜,全年,3.2,免费,2-3小时,原生街锦州东湖森林公园,121.165652,41.101765
锦州市,朱家大院旧址,风景名胜,全年,3.7,免费,2-3小时,胜昔路与士英南街交叉口东北160米,121.122880,41.111554
锦州市,甲午战争湘军武威军炮营炮垒遣址,风景名胜,全年,3.7,免费,2-3小时,[],121.206744,41.321131
锦州市,朝阳寺山商周遗址,风景名胜,全年,3.7,免费,2-3小时,306省道朝阳寺山商周遗址附近,120.908931,41.235223
锦州市,慈母碑,风景名胜,全年,3.6,免费,2-3小时,勃海路1号北普陀山风景名胜区内,121.053792,41.170440
锦州市,恋人松,风景名胜,全年,3.6,免费,2-3小时,勃海路1号北普陀山风景名胜区内,121.054309,41.181213
锦州市,石油公园-休息亭,风景名胜,全年,3.2,免费,2-3小时,红星街与石油东街交叉口东100米,121.114712,41.135968
锦州市,锦州北普陀山风景名胜区-镜湖迎宾,风景名胜,全年,3.5,免费,2-3小时,勃海路1号北普陀山风景名胜区内,121.060712,41.162861
锦州市,歪脖老母,风景名胜,全年,4.4,免费,2-3小时,常兴店镇717县道青岩寺内,121.612822,41.481287
锦州市,般若自在,风景名胜,全年,3.6,免费,2-3小时,向阳街与重庆路交叉口东北40米,121.136704,41.130027
锦州市,汤泉寺,风景名胜,全年,3.7,免费,2-3小时,[],120.958303,41.070985
锦州市,将军台,风景名胜,全年,3.6,免费,2-3小时,金城街道,121.377272,41.215003
锦州市,马布哈欢迎岛,风景名胜,全年,3.6,免费,2-3小时,世园路1号锦州世博园内(北侧),121.196989,40.913966
锦州市,锦州电信党员公益林,风景名胜,全年,3.2,免费,2-3小时,中央大街与南京路交叉口东南280米,121.140264,41.105049
锦州市,翠岩广场,风景名胜,全年,3.6,免费,2-3小时,翠岩广场(052县道北),120.961811,41.213598
锦州市,东花村部广场,风景名胜,全年,3.8,免费,2-3小时,东花村,121.468370,41.164021
锦州市,万佛堂石窟,风景名胜,全年,4.5,免费,2-3小时,头台镇万佛堂村,121.159294,41.577353
锦州市,佛光寺,风景名胜,全年,4.0,免费,2-3小时,石东村东北,121.525963,41.264078
锦州市,和乐社区市民文化广场,风景名胜,全年,3.3,免费,2-3小时,滨河路与太平街交叉口东南260米,121.117129,41.104549
锦州市,猫呓电竞民宿(锦州渤海大学松山校区万达广场店),风景名胜,全年,2.8,免费,2-3小时,成都街与科技路交叉口西北280米,121.115652,41.092736
锦州市,大芦花景区,风景名胜,全年,4.6,免费,2-3小时,鲍家乡桃园村,121.642645,41.523957
营口市,营口鸟浪广场,风景名胜,全年,4.6,免费,2-3小时,新海大街与观海路交叉口东南20米,122.156133,40.603794
营口市,西炮台公园,风景名胜,全年,4.6,免费,2-3小时,渔市街道渤海大街西段116号,122.175941,40.668923
营口市,辽河老街,风景名胜,全年,4.6,免费,2-3小时,"渔市街道繁荣里,辽河大街西段",122.208860,40.682390
营口市,楞严寺公园,风景名胜,全年,4.4,免费,2-3小时,惠宾路附近,122.231656,40.670821
营口市,镜湖公园,风景名胜,全年,4.2,免费,2-3小时,金牛山大街(近万都酒店),122.219486,40.659933
营口市,南湖公园,风景名胜,全年,4.2,免费,2-3小时,建丰街道市府路,122.246272,40.650258
营口市,营口西炮台遗址陈列馆,风景名胜,全年,4.3,免费,2-3小时,渔市街道渤海大街西段116号西炮台公园(西南角),122.173336,40.666022
营口市,楞严禅寺,风景名胜,全年,4.3,免费,2-3小时,新兴大街西16号,122.230551,40.671453
营口市,大辽河入海口,风景名胜,全年,4.4,免费,2-3小时,西炮台公园北侧正西方向50米,122.169304,40.668718
营口市,森林公园,风景名胜,全年,4.2,免费,2-3小时,平安路与青花大街交汇处,122.214285,40.652484
营口市,人民公园,风景名胜,全年,4.3,免费,2-3小时,公园路,122.272309,40.683674
营口市,海螺广场,风景名胜,全年,4.3,免费,2-3小时,渤海大街西头南行,122.165978,40.656669
营口市,泰和园,风景名胜,全年,4.2,免费,2-3小时,东新路与太和北街交叉口南150米,122.267286,40.667430
营口市,辽河公园,风景名胜,全年,4.3,免费,2-3小时,辽河大街东14-5号,122.243976,40.680554
营口市,澄湖公园,风景名胜,全年,4.1,免费,2-3小时,澄湖东路与新联南大街东段交叉口西北140米,122.241627,40.620595
营口市,北海禅寺,风景名胜,全年,4.4,免费,2-3小时,团山国家级海洋公园景区内,122.211877,40.424741
营口市,民兴河广场,风景名胜,全年,4.1,免费,2-3小时,海澜街与市府路交叉口东南160米,122.239670,40.639855
营口市,蟠龙山公园,风景名胜,全年,4.2,免费,2-3小时,哈大中路2号,122.523133,40.645298
营口市,树人公园,风景名胜,全年,4.0,免费,2-3小时,聪慧路与青花大街交叉口,122.255281,40.651652
营口市,红旗广场,风景名胜,全年,4.2,免费,2-3小时,清华路与辽河大街交汇处北100米路东,122.226171,40.680140
营口市,明湖广场智慧化体育公园,风景名胜,全年,1.8,免费,2-3小时,新联大街151号,122.221881,40.619322
营口市,迷镇山娘娘庙,风景名胜,全年,4.2,免费,2-3小时,金桥街道金龙路,122.474330,40.626751
营口市,平安广场,风景名胜,全年,4.1,免费,2-3小时,滨河大街与平安路交叉口东北40米,122.218167,40.682729
营口市,营口基督教堂,风景名胜,全年,4.1,免费,2-3小时,延寿里1号,122.222174,40.677390
营口市,步云桥,风景名胜,全年,3.8,免费,2-3小时,新建大街东段1号,122.228594,40.612267
营口市,营口市雷锋纪念馆,风景名胜,全年,0.0,免费,2-3小时,营口图书大厦2层,122.234235,40.649892
营口市,永远角湿地,风景名胜,全年,4.1,免费,2-3小时,滨河大街西123号,122.177325,40.698592
营口市,北海红海滩,风景名胜,全年,4.2,免费,2-3小时,团山街道滨海公路,122.232001,40.421787
营口市,熙湖公园,风景名胜,全年,4.2,免费,2-3小时,花园路,122.368596,40.685974
营口市,营口俄国领事馆旧址,风景名胜,全年,4.1,免费,2-3小时,建设街6-4号楼,122.238149,40.677612
营口市,樱溪公园,风景名胜,全年,3.9,免费,2-3小时,营口职业技术学院西100米路北侧,122.236636,40.606468
营口市,金牛山遗址,风景名胜,全年,4.1,免费,2-3小时,上白线,122.449774,40.578299
营口市,广心寺,风景名胜,全年,4.1,免费,2-3小时,胜利路6-甲5号,122.232472,40.673301
营口市,辽河广场,风景名胜,全年,4.1,免费,2-3小时,建设街与市府路交汇处,122.239492,40.678862
营口市,大辽河玻璃栈道,风景名胜,全年,4.1,免费,2-3小时,辽河大街与得胜路交叉口西北380米,122.201448,40.686386
营口市,海潮寺,风景名胜,全年,4.0,免费,2-3小时,辽河大街西63号,122.203275,40.684025
营口市,渡口广场,风景名胜,全年,4.1,免费,2-3小时,辽河大街与得胜路交叉口东380米,122.207789,40.683880
营口市,清真东寺,风景名胜,全年,4.0,免费,2-3小时,新华路北31号,122.229405,40.673129
营口市,营口植物园,风景名胜,全年,4.1,免费,2-3小时,大庆路44-50号,122.277181,40.709805
营口市,希望广场,风景名胜,全年,3.5,免费,2-3小时,渤海大街与学府路交叉口东北80米,122.244369,40.666922
营口市,歪脖老母殿,风景名胜,全年,4.0,免费,2-3小时,团山管理区北海村辽宁团山国家级海洋公园内(北侧),122.212091,40.425525
营口市,和谐广场,风景名胜,全年,4.2,免费,2-3小时,新兴街,122.505420,40.620655
营口市,念佛寺,风景名胜,全年,3.9,免费,2-3小时,学府路北24号,122.243062,40.675156
营口市,盖州钟鼓楼,风景名胜,全年,4.2,免费,2-3小时,鼓楼街道辰州南路,122.365313,40.399904
营口市,东湖广场,风景名胜,全年,4.2,免费,2-3小时,东湖大街与富民路交叉口西南260米,122.307919,40.668602
营口市,盖州财神庙,风景名胜,全年,4.3,免费,2-3小时,红旗大街盖州市第一初级中学东北侧约220米,122.372112,40.401178
营口市,牛头山双泉寺,风景名胜,全年,4.3,免费,2-3小时,虎庄镇,122.571258,40.757238
营口市,玉皇宫(金龙路),风景名胜,全年,4.1,免费,2-3小时,金龙路玉皇宫(迷镇山娘娘庙西250米),122.474623,40.624941
营口市,潜龙广场,风景名胜,全年,4.0,免费,2-3小时,辽河大桥西123号,122.182859,40.694560
营口市,万和寺,风景名胜,全年,4.2,免费,2-3小时,太阳升街道阎峪村凤凰山202国道东侧,122.316345,40.345423
营口市,靶场休闲广场,风景名胜,全年,3.9,免费,2-3小时,富康路与智泉街交叉口南200米,122.229252,40.652843
营口市,老边区观音寺,风景名胜,全年,4.0,免费,2-3小时,区明路,122.324809,40.660783
营口市,仙鹤湾,风景名胜,全年,4.0,免费,2-3小时,滨海大道1号,122.160508,40.707335
营口市,营口清真寺,风景名胜,全年,3.8,免费,2-3小时,清真寺里,122.219220,40.676472
营口市,西崴子烽火台,风景名胜,全年,4.0,免费,2-3小时,[],122.208450,40.418963
营口市,鹤羊山莲花观,风景名胜,全年,4.0,免费,2-3小时,郑屯村委会,122.240663,40.393097
营口市,中共奉天支部营口小组纪念馆,风景名胜,全年,0.0,免费,2-3小时,新华路北9号(清华社区新华卫生服务站对过),122.227601,40.668368
营口市,慈航寺,风景名胜,全年,4.0,免费,2-3小时,东城办事处虎斗马峪村,122.423577,40.433471
营口市,盖州关帝庙,风景名胜,全年,4.2,免费,2-3小时,太阳升街道老爷庙村,122.342733,40.344884
营口市,玄贞观,风景名胜,全年,4.1,免费,2-3小时,红旗大街85号,122.364022,40.403289
营口市,辽宁团山国家级海洋公园-观景台,风景名胜,全年,4.1,免费,2-3小时,新区西部滨海旅游带西崴子村南辽宁团山国家级海洋公园(西北角),122.204664,40.417374
营口市,东林禅寺,风景名胜,全年,4.1,免费,2-3小时,金龙路,122.481267,40.627540
营口市,绣龙森林公园,风景名胜,全年,4.0,免费,2-3小时,红旗大街,122.352039,40.412304
营口市,辽宁省双龙山旅游风景区,风景名胜,全年,4.0,免费,2-3小时,沙岗镇上屯村(村里的山上),122.299837,40.313506
营口市,文峰禅寺,风景名胜,全年,4.0,免费,2-3小时,红花峪村,122.366965,40.426806
营口市,大石桥市回春观道院,风景名胜,全年,4.0,免费,2-3小时,红旗山红旗南街与青龙山大街交叉口东南方向1公里,122.522527,40.598842
营口市,葵花小镇,风景名胜,全年,3.9,免费,2-3小时,柳树镇东岗子村,122.427761,40.577558
营口市,营口天主堂,风景名胜,全年,3.7,免费,2-3小时,建设街12号,122.240328,40.677358
营口市,营口市南光基督教,风景名胜,全年,3.6,免费,2-3小时,金牛山大街东30甲,122.252000,40.657831
营口市,盖州城墙,风景名胜,全年,4.1,免费,2-3小时,鱼市胡同与束鹿路交叉口东280米,122.371050,40.400352
